,bbr,namn,region-iso,funktion,byggar,arkitekt,plats,kommun,lat,lon,bild,commonscat,source,changed,monument_article,registrant_url
0,21300000013342,[[Ekolsunds f.d. värdshus]] (Ekolsund 3:7),SE-C,Gästgivargård (1 byggnad),1770-talet,,,Enköping,59.65269,17.36559,Ekolsunds_vardshus.jpg,,//sv.wikipedia.org/w/index.php?title=Lista_%C3%B6ver_byggnadsminnen_i_Uppsala_l%C3%A4n&oldid=30716291,2016-06-08 06:51:46,Ekolsunds_f.d._värdshus,http://www.bebyggelseregistret.raa.se/bbr2/anlaggning/visaHistorik.raa?page=historik&visaHistorik=true&anlaggningId=21300000013342
1,21300000013350,[[Ekolsunds slott]] (Ekolsund 1:227; f.d. 1:102),SE-C,"Herrgård,Livsmedelsindustri,Bageri,Säteri (3 byggnader)",1630-talet,,,Enköping,59.65075,17.36639,Ekolsund_2.jpg,,//sv.wikipedia.org/w/index.php?title=Lista_%C3%B6ver_byggnadsminnen_i_Uppsala_l%C3%A4n&oldid=30716291,2016-06-08 06:51:46,Ekolsunds_slott,http://www.bebyggelseregistret.raa.se/bbr2/anlaggning/visaHistorik.raa?page=historik&visaHistorik=true&anlaggningId=21300000013350
2,21300000013330,[[Gryta majorsboställe]] (Gryta 5:3),SE-C,"Boställe,Officersboställe (3 byggnader)",1732,,,Enköping,59.73956,17.34746,Gryta_majorsboställe.jpg,,//sv.wikipedia.org/w/index.php?title=Lista_%C3%B6ver_byggnadsminnen_i_Uppsala_l%C3%A4n&oldid=30716291,2016-06-08 06:51:46,Gryta_majorsboställe,http://www.bebyggelseregistret.raa.se/bbr2/anlaggning/visaHistorik.raa?page=historik&visaHistorik=true&anlaggningId=21300000013330
3,21300000013705,[[Grönsö slott]] (Grönsö 1:1),SE-C,Slott (2 byggnader),1610,,,Enköping,59.47225,17.24542,Grönsö_slott.jpg,,//sv.wikipedia.org/w/index.php?title=Lista_%C3%B6ver_byggnadsminnen_i_Uppsala_l%C3%A4n&oldid=30716291,2016-06-08 06:51:46,Grönsö_slott,http://www.bebyggelseregistret.raa.se/bbr2/anlaggning/visaHistorik.raa?page=historik&visaHistorik=true&anlaggningId=21300000013705
4,21300000013363,"[[Härnevi kvarn|Härnevi kvarn och såg]] (Stora Härnevi 2:2, 11:1 och Kylsta 8:2)",SE-C,"Kvarn,Industrikvarn,Såg (10 byggnader)",1864,,,Enköping,59.73355,17.05979,Härnevi_kvarn.jpg,,//sv.wikipedia.org/w/index.php?title=Lista_%C3%B6ver_byggnadsminnen_i_Uppsala_l%C3%A4n&oldid=30716291,2016-06-08 06:51:46,Härnevi_kvarn,http://www.bebyggelseregistret.raa.se/bbr2/anlaggning/visaHistorik.raa?page=historik&visaHistorik=true&anlaggningId=21300000013363
5,21300000013318,[[Kvekgården]] (Kvek 2:34 och 2:36),SE-C,Bondgård (10 byggnader),1855,,,Enköping,59.7271,17.2668,Kvekgården_4.jpg,,//sv.wikipedia.org/w/index.php?title=Lista_%C3%B6ver_byggnadsminnen_i_Uppsala_l%C3%A4n&oldid=30716291,2016-06-08 06:51:46,Kvekgården,http://www.bebyggelseregistret.raa.se/bbr2/anlaggning/visaHistorik.raa?page=historik&visaHistorik=true&anlaggningId=21300000013318
6,21300000013308,[[Landsberga översteboställe]] (Landsberga 1:1),SE-C,"Boställe,Officersboställe (5 byggnader)",1801,,,Enköping,59.74088,17.18004,Landsberga_gård.jpg,,//sv.wikipedia.org/w/index.php?title=Lista_%C3%B6ver_byggnadsminnen_i_Uppsala_l%C3%A4n&oldid=30716291,2016-06-08 06:51:46,Landsberga_översteboställe,http://www.bebyggelseregistret.raa.se/bbr2/anlaggning/visaHistorik.raa?page=historik&visaHistorik=true&anlaggningId=21300000013308
7,21300000013701,[[Salnecke slott]] (Salnecke 1:10),SE-C,Slott (4 byggnader),1640-talet,,,Enköping,59.73921,17.33841,Salnecke_slott.jpg,,//sv.wikipedia.org/w/index.php?title=Lista_%C3%B6ver_byggnadsminnen_i_Uppsala_l%C3%A4n&oldid=30716291,2016-06-08 06:51:46,Salnecke_slott,http://www.bebyggelseregistret.raa.se/bbr2/anlaggning/visaHistorik.raa?page=historik&visaHistorik=true&anlaggningId=21300000013701
8,21300000013520,[[Utö hus|Utöhus]] (Utö 2:1; f.d. Utöhus 1:1),SE-C,Slott (1 byggnad),1400-talet,,,Enköping,59.47294,17.23204,Utöhus_1.jpg,,//sv.wikipedia.org/w/index.php?title=Lista_%C3%B6ver_byggnadsminnen_i_Uppsala_l%C3%A4n&oldid=30716291,2016-06-08 06:51:46,Utö_hus,http://www.bebyggelseregistret.raa.se/bbr2/anlaggning/visaHistorik.raa?page=historik&visaHistorik=true&anlaggningId=21300000013520
9,21300000013537,[[Veckholms gamla prästgård]] (Veckholm 1:8; f.d. 1:1),SE-C,"Boställe,Prästgård,Hembygdsgård (3 byggnader)",1700-talets mitt,,,Enköping,59.52292,17.32079,Veckholm_prästgård.jpg,,//sv.wikipedia.org/w/index.php?title=Lista_%C3%B6ver_byggnadsminnen_i_Uppsala_l%C3%A4n&oldid=30716291,2016-06-08 06:51:46,Veckholms_gamla_prästgård,http://www.bebyggelseregistret.raa.se/bbr2/anlaggning/visaHistorik.raa?page=historik&visaHistorik=true&anlaggningId=21300000013537
10,21300000013101,"[[Huddungeby]], [[Anders Olsgården]] (Huddungeby 3:19)",SE-C,Bondgård (2 byggnader),1835,,,Heby,60.04171,16.98149,Huddungeby Anders Ols.jpg,,//sv.wikipedia.org/w/index.php?title=Lista_%C3%B6ver_byggnadsminnen_i_Uppsala_l%C3%A4n&oldid=30716291,2016-06-08 06:51:46,Huddungeby,http://www.bebyggelseregistret.raa.se/bbr2/anlaggning/visaHistorik.raa?page=historik&visaHistorik=true&anlaggningId=21300000013101
11,21300000013107,[[Harbonäs]] säteri (Harbonäs 2:1),SE-C,Säteri (1 byggnad),1637,,,Heby,60.13771,17.29727,Harbonäs 2.jpg,,//sv.wikipedia.org/w/index.php?title=Lista_%C3%B6ver_byggnadsminnen_i_Uppsala_l%C3%A4n&oldid=30716291,2016-06-08 06:51:46,Harbonäs,http://www.bebyggelseregistret.raa.se/bbr2/anlaggning/visaHistorik.raa?page=historik&visaHistorik=true&anlaggningId=21300000013107
12,21300000013105,"[[Huddungeby]], [[Jan Ers-gården]] (Huddungeby 3:20)",SE-C,Bondgård (4 byggnader),1840-talet,,,Heby,60.04174,16.98228,Huddungeby Jan Ers.jpg,,//sv.wikipedia.org/w/index.php?title=Lista_%C3%B6ver_byggnadsminnen_i_Uppsala_l%C3%A4n&oldid=30716291,2016-06-08 06:51:46,Huddungeby,http://www.bebyggelseregistret.raa.se/bbr2/anlaggning/visaHistorik.raa?page=historik&visaHistorik=true&anlaggningId=21300000013105
13,21300000013096,[[Östervåla gästgivargård]] (Östervåla-Åby 8:69; f.d. 8:9),SE-C,Gästgivargård (1 byggnad),1795,,[[Östervåla]],Heby,60.18349,17.18687,Östervåla gästgivargård 2012a.JPG,,//sv.wikipedia.org/w/index.php?title=Lista_%C3%B6ver_byggnadsminnen_i_Uppsala_l%C3%A4n&oldid=30716291,2016-06-08 06:51:46,Östervåla_gästgivargård,http://www.bebyggelseregistret.raa.se/bbr2/anlaggning/visaHistorik.raa?page=historik&visaHistorik=true&anlaggningId=21300000013096
14,21300000013578,[[Biskops-Arnö]] (Biskops-Arnö 1:1),SE-C,Biskopsgård (9 byggnader),1300-talet,,,Håbo,59.66257,17.48658,Biskops Arnö 2.jpg,,//sv.wikipedia.org/w/index.php?title=Lista_%C3%B6ver_byggnadsminnen_i_Uppsala_l%C3%A4n&oldid=30716291,2016-06-08 06:51:46,Biskops-Arnö,http://www.bebyggelseregistret.raa.se/bbr2/anlaggning/visaHistorik.raa?page=historik&visaHistorik=true&anlaggningId=21300000013578
15,21300000013580,[[Skoklosters slott]] (Skokloster 2:4; f.d. Skokloster 2:1),SE-C,Slott (5 byggnader),1668,,,Håbo,59.70308,17.61941,Skoklosterslott666.JPG,,//sv.wikipedia.org/w/index.php?title=Lista_%C3%B6ver_byggnadsminnen_i_Uppsala_l%C3%A4n&oldid=30716291,2016-06-08 06:51:46,Skoklosters_slott,http://www.bebyggelseregistret.raa.se/bbr2/anlaggning/visaHistorik.raa?page=historik&visaHistorik=true&anlaggningId=21300000013580
16,21000001480420,[[Flottsunds fyr]] (Kungshamn 1-5:1),SE-C,Fyrplats (1 byggnad),1929,,,Knivsta,59.7862,17.65596,Flottsund lighthouse.jpg,,//sv.wikipedia.org/w/index.php?title=Lista_%C3%B6ver_byggnadsminnen_i_Uppsala_l%C3%A4n&oldid=30716291,2016-06-08 06:51:46,Flottsunds_fyr,http://www.bebyggelseregistret.raa.se/bbr2/anlaggning/visaHistorik.raa?page=historik&visaHistorik=true&anlaggningId=21000001480420
17,21300000013254,"[[Krusenbergs herrgård]] (Krusenberg 1:58, 1:1 och ga:1)",SE-C,"Herrgård,Säteri (5 byggnader)",1802,,,Knivsta,59.735,17.64665,Krusenberg herrgard Knivsta kommun.jpg,,//sv.wikipedia.org/w/index.php?title=Lista_%C3%B6ver_byggnadsminnen_i_Uppsala_l%C3%A4n&oldid=30716291,2016-06-08 06:51:46,Krusenbergs_herrgård,http://www.bebyggelseregistret.raa.se/bbr2/anlaggning/visaHistorik.raa?page=historik&visaHistorik=true&anlaggningId=21300000013254
18,21300000018416,[[Mora stenar]] (Mora 1:1),SE-C,Museum (1 byggnad),1770,,,Knivsta,59.79775,17.78078,Mora stenar huset från vägen.jpg,,//sv.wikipedia.org/w/index.php?title=Lista_%C3%B6ver_byggnadsminnen_i_Uppsala_l%C3%A4n&oldid=30716291,2016-06-08 06:51:46,Mora_stenar,http://www.bebyggelseregistret.raa.se/bbr2/anlaggning/visaHistorik.raa?page=historik&visaHistorik=true&anlaggningId=21300000018416
19,21300000013264,[[Skottsila]] f.d. mönsterskrivarboställe (Skottsila 2:7; f.d. 2:1),SE-C,Ämbets- och tjänstemannaboställe (4 byggnader),1792,,,Knivsta,59.69695,17.78111,Skottsila mönsterskrivarboställe 2.jpg,,//sv.wikipedia.org/w/index.php?title=Lista_%C3%B6ver_byggnadsminnen_i_Uppsala_l%C3%A4n&oldid=30716291,2016-06-08 06:51:46,Skottsila,http://www.bebyggelseregistret.raa.se/bbr2/anlaggning/visaHistorik.raa?page=historik&visaHistorik=true&anlaggningId=21300000013264
20,21300000013373,"[[Söderfors bruk]] (Söderfors bruk 1:1 och 1:158, Jörsön 3:1 och 9:1)",SE-C,Park (95 byggnader),1690,,,Tierp,60.3846,17.23856,Söderfors Dalälven.jpg,,//sv.wikipedia.org/w/index.php?title=Lista_%C3%B6ver_byggnadsminnen_i_Uppsala_l%C3%A4n&oldid=30716291,2016-06-08 06:51:46,Söderfors_bruk,http://www.bebyggelseregistret.raa.se/bbr2/anlaggning/visaHistorik.raa?page=historik&visaHistorik=true&anlaggningId=21300000013373
21,21300000013354,[[Griggebo såg]] (Griggebo 1:17),SE-C,Såg (1 byggnad),1850,,,Tierp,60.4696,17.87104,"Griggebo såg, bak sidan.jpg",,//sv.wikipedia.org/w/index.php?title=Lista_%C3%B6ver_byggnadsminnen_i_Uppsala_l%C3%A4n&oldid=30716291,2016-06-08 06:51:46,Griggebo_såg,http://www.bebyggelseregistret.raa.se/bbr2/anlaggning/visaHistorik.raa?page=historik&visaHistorik=true&anlaggningId=21300000013354
22,21300000013494,"[[Karlholmsbruk]]s Lancashiresmedja, kvarn, blåsmaksin och våghus (Karlholm 1:48-49 och 1:53)",SE-C,Bruk (4 byggnader),1880,,,Tierp,60.52231,17.63789,Karlholmsbruks Lancashiresmedja 1.jpg,,//sv.wikipedia.org/w/index.php?title=Lista_%C3%B6ver_byggnadsminnen_i_Uppsala_l%C3%A4n&oldid=30716291,2016-06-08 06:51:46,Karlholmsbruk,http://www.bebyggelseregistret.raa.se/bbr2/anlaggning/visaHistorik.raa?page=historik&visaHistorik=true&anlaggningId=21300000013494
23,21300000013541,[[Lars-Larsgården]] (Munga 5:9),SE-C,Bondgård (1 byggnad),1760-talet,,,Tierp,60.30851,17.41109,,,//sv.wikipedia.org/w/index.php?title=Lista_%C3%B6ver_byggnadsminnen_i_Uppsala_l%C3%A4n&oldid=30716291,2016-06-08 06:51:46,Lars-Larsgården,http://www.bebyggelseregistret.raa.se/bbr2/anlaggning/visaHistorik.raa?page=historik&visaHistorik=true&anlaggningId=21300000013541
24,21300000013379,[[Lövstabruk]] (Skärsättra 1:20 m.fl.;f.d. Skärsättra 1:2 m.fl),SE-C,"Herrgård,Bruksherrgård,Bruk (122 byggnader)",1700-talet,,,Tierp,60.40813,17.87879,Lövstabruk herrgård.jpg,,//sv.wikipedia.org/w/index.php?title=Lista_%C3%B6ver_byggnadsminnen_i_Uppsala_l%C3%A4n&oldid=30716291,2016-06-08 06:51:46,Lövstabruk,http://www.bebyggelseregistret.raa.se/bbr2/anlaggning/visaHistorik.raa?page=historik&visaHistorik=true&anlaggningId=21300000013379
25,21300000013509,[[Åkerby bruk]]s klockstapel (Österlövsta-Åkerby 10:28),SE-C,Bruk (1 byggnad),1739,,,Tierp,60.41634,17.76449,Åkerby bruk 2.jpg,,//sv.wikipedia.org/w/index.php?title=Lista_%C3%B6ver_byggnadsminnen_i_Uppsala_l%C3%A4n&oldid=30716291,2016-06-08 06:51:46,Åkerby_bruk,http://www.bebyggelseregistret.raa.se/bbr2/anlaggning/visaHistorik.raa?page=historik&visaHistorik=true&anlaggningId=21300000013509
26,21300000013543,[[Örbyhus slott]] (Örbyhus 1:8),SE-C,Slott (29 byggnader),1400-talet,,,Tierp,60.20026,17.7062,Örbyhus slott 2.jpg,,//sv.wikipedia.org/w/index.php?title=Lista_%C3%B6ver_byggnadsminnen_i_Uppsala_l%C3%A4n&oldid=30716291,2016-06-08 06:51:46,Örbyhus_slott,http://www.bebyggelseregistret.raa.se/bbr2/anlaggning/visaHistorik.raa?page=historik&visaHistorik=true&anlaggningId=21300000013543
27,21300000013404,"[[Televerkets hus, Uppsala|Televerkets hus]] (Dragarbrunn 30:5)",SE-C,Telegrafstation och televerk (1 byggnad),1917,,,Uppsala,59.85757,17.64236,Televerket i Uppsala 1.jpg,,//sv.wikipedia.org/w/index.php?title=Lista_%C3%B6ver_byggnadsminnen_i_Uppsala_l%C3%A4n&oldid=30716291,2016-06-08 06:51:46,"Televerkets_hus,_Uppsala",http://www.bebyggelseregistret.raa.se/bbr2/anlaggning/visaHistorik.raa?page=historik&visaHistorik=true&anlaggningId=21300000013404
28,21300000013715,"[[Kungliga Vetenskaps-Societeten i Uppsala|Vetenskapssocietetens hus]], [[Schefferska huset]] (Fjärdingen 15:1; f.d. Disa 8)",SE-C,Vetenskaplig sammanslutning (2 byggnader),1670-talet,,,Uppsala,59.85881,17.63215,Vetenskapssocietetens hus panorama.jpg,,//sv.wikipedia.org/w/index.php?title=Lista_%C3%B6ver_byggnadsminnen_i_Uppsala_l%C3%A4n&oldid=30716291,2016-06-08 06:51:46,Kungliga_Vetenskaps-Societeten_i_Uppsala,http://www.bebyggelseregistret.raa.se/bbr2/anlaggning/visaHistorik.raa?page=historik&visaHistorik=true&anlaggningId=21300000013715
29,21300000013449,"[[Geijersgården, Uppsala|Geijersgården]] (Fjärdingen 19:3)",SE-C,Borgargård (3 byggnader),1737,,,Uppsala,59.85576,17.63041,DagHammarskjoldCentre II.jpg,,//sv.wikipedia.org/w/index.php?title=Lista_%C3%B6ver_byggnadsminnen_i_Uppsala_l%C3%A4n&oldid=30716291,2016-06-08 06:51:46,"Geijersgården,_Uppsala",http://www.bebyggelseregistret.raa.se/bbr2/anlaggning/visaHistorik.raa?page=historik&visaHistorik=true&anlaggningId=21300000013449
30,21300000013673,"[[Universitetshuset, Uppsala|Universitetshuset]], [[Universitetsparken, Uppsala|Universitetsparken]], [[Gustavianum]] och [[Ekermanska huset]] (Fjärdingen 1:9; f.d. S:t Eriks torg 2)",SE-C,"Sjukhus,Ämbets- och tjänstemannaboställe,Skola,Universitet (3 byggnader)","1300-1400-talet (Gustavianum), 1761 (Ekermanska), 1887 (Universitetet)",,,Uppsala,59.85799,17.63099,Ob0002 by Upplandsmuseet.jpg,,//sv.wikipedia.org/w/index.php?title=Lista_%C3%B6ver_byggnadsminnen_i_Uppsala_l%C3%A4n&oldid=30716291,2016-06-08 06:51:46,"Universitetshuset,_Uppsala",http://www.bebyggelseregistret.raa.se/bbr2/anlaggning/visaHistorik.raa?page=historik&visaHistorik=true&anlaggningId=21300000013673
31,21300000013552,"Kemicum, Fysicum, Philologicum och Prefektbostaden i [[Engelska parken - Humanistiskt centrum|Kvarteret Kemikum]] (Kåbo 14:3 och 14:4;f.d. 14:1-14:2)",SE-C,"Skola,Universitetsinstitution (5 byggnader)","1859, 1904 (Kemicum), 1909 (Fysicum), 1912 (Prefektbostaden)",,,Uppsala,59.85346,17.6266,Gamla Fysikum Uppsala.JPG,,//sv.wikipedia.org/w/index.php?title=Lista_%C3%B6ver_byggnadsminnen_i_Uppsala_l%C3%A4n&oldid=30716291,2016-06-08 06:51:46,Engelska_parken_-_Humanistiskt_centrum,http://www.bebyggelseregistret.raa.se/bbr2/anlaggning/visaHistorik.raa?page=historik&visaHistorik=true&anlaggningId=21300000013552
32,21300000013441,[[Upplandsmuseet|Akademikvarnen]] (Fjärdingen 1:12; f.d. Holmen 4),SE-C,"Kvarn,Industrikvarn,Museum (4 byggnader)",1768,,,Uppsala,59.85895,17.63459,Akademikvarnen i Uppsala.jpg,,//sv.wikipedia.org/w/index.php?title=Lista_%C3%B6ver_byggnadsminnen_i_Uppsala_l%C3%A4n&oldid=30716291,2016-06-08 06:51:46,Upplandsmuseet,http://www.bebyggelseregistret.raa.se/bbr2/anlaggning/visaHistorik.raa?page=historik&visaHistorik=true&anlaggningId=21300000013441
33,21300000013301,"[[Altomta gård]] (Altomta 1:1, 2:1 och 3:1)",SE-C,Herrgård (5 byggnader),1775,,,Uppsala,60.02183,17.6978,Altomta 2012b.jpg,,//sv.wikipedia.org/w/index.php?title=Lista_%C3%B6ver_byggnadsminnen_i_Uppsala_l%C3%A4n&oldid=30716291,2016-06-08 06:51:46,Altomta_gård,http://www.bebyggelseregistret.raa.se/bbr2/anlaggning/visaHistorik.raa?page=historik&visaHistorik=true&anlaggningId=21300000013301
34,21300000013610,"[[Botaniska trädgården, Uppsala|Botaniska trädgården]] (Kåbo 25:1; f.d. stä 657)",SE-C,Botanisk trädgård (3 byggnader),1794,,,Uppsala,59.85219,17.62816,"Botaniska trädgården, Uppsala II.jpg",,//sv.wikipedia.org/w/index.php?title=Lista_%C3%B6ver_byggnadsminnen_i_Uppsala_l%C3%A4n&oldid=30716291,2016-06-08 06:51:46,"Botaniska_trädgården,_Uppsala",http://www.bebyggelseregistret.raa.se/bbr2/anlaggning/visaHistorik.raa?page=historik&visaHistorik=true&anlaggningId=21300000013610
35,21300000013613,[[Carolina Rediviva]] (Kåbo 15:1),SE-C,Bibliotek (1 byggnad),1841,,,Uppsala,59.85491,17.63097,Carolina Rediviva in summer.jpg,,//sv.wikipedia.org/w/index.php?title=Lista_%C3%B6ver_byggnadsminnen_i_Uppsala_l%C3%A4n&oldid=30716291,2016-06-08 06:51:46,Carolina_Rediviva,http://www.bebyggelseregistret.raa.se/bbr2/anlaggning/visaHistorik.raa?page=historik&visaHistorik=true&anlaggningId=21300000013613
36,21300000013614,[[Dekanhuset (Uppsala)|Dekanhuset]] (Fjärdingen 24:1),SE-C,Borgargård (1 byggnad),1746,,,Uppsala,59.85746,17.63268,Dean's house Uppsala Sweden 001.JPG,,//sv.wikipedia.org/w/index.php?title=Lista_%C3%B6ver_byggnadsminnen_i_Uppsala_l%C3%A4n&oldid=30716291,2016-06-08 06:51:46,Dekanhuset_(Uppsala),http://www.bebyggelseregistret.raa.se/bbr2/anlaggning/visaHistorik.raa?page=historik&visaHistorik=true&anlaggningId=21300000013614
37,21300000013391,"[[Domkapitelhuset, Uppsala|Domkapitelhuset]] (Fjärdingen 22:1)",SE-C,Domkapitel (1 byggnad),1100-1500-talet,,,Uppsala,59.85837,17.6349,Domkapitelhuset 04.jpg,,//sv.wikipedia.org/w/index.php?title=Lista_%C3%B6ver_byggnadsminnen_i_Uppsala_l%C3%A4n&oldid=30716291,2016-06-08 06:51:46,"Domkapitelhuset,_Uppsala",http://www.bebyggelseregistret.raa.se/bbr2/anlaggning/visaHistorik.raa?page=historik&visaHistorik=true&anlaggningId=21300000013391
38,21300000013387,[[Domtrapphuset]] (Fjärdingen 22:1),SE-C,Bostadshus (1 byggnad),1280,,,Uppsala,59.85828,17.6351,Domtrapphuset.jpg,,//sv.wikipedia.org/w/index.php?title=Lista_%C3%B6ver_byggnadsminnen_i_Uppsala_l%C3%A4n&oldid=30716291,2016-06-08 06:51:46,Domtrapphuset,http://www.bebyggelseregistret.raa.se/bbr2/anlaggning/visaHistorik.raa?page=historik&visaHistorik=true&anlaggningId=21300000013387
39,21300000013485,"[[Ekeby, Vänge socken|Ekeby by]] (Vänge-Ekeby 6:1 (del av), 6:2, 6:4, 6:5, 7:2 och samfälld mark)",SE-C,Bysamfällighet (41 byggnader),1800-talet,,,Uppsala,59.84897,17.45179,"Ekeby by, Vänge socken, Uppland.jpg",,//sv.wikipedia.org/w/index.php?title=Lista_%C3%B6ver_byggnadsminnen_i_Uppsala_l%C3%A4n&oldid=30716291,2016-06-08 06:51:46,"Ekeby,_Vänge_socken",http://www.bebyggelseregistret.raa.se/bbr2/anlaggning/visaHistorik.raa?page=historik&visaHistorik=true&anlaggningId=21300000013485
40,21300000016687,[[Focksta kvarn]] (Hagby-Focksta 6:1),SE-C,Kvarn (7 byggnader),1881,,,Uppsala,59.79395,17.36977,"Kvarnbyggnaden, Focksta kvarn, Hagby socken, Uppland.jpg",,//sv.wikipedia.org/w/index.php?title=Lista_%C3%B6ver_byggnadsminnen_i_Uppsala_l%C3%A4n&oldid=30716291,2016-06-08 06:51:46,Focksta_kvarn,http://www.bebyggelseregistret.raa.se/bbr2/anlaggning/visaHistorik.raa?page=historik&visaHistorik=true&anlaggningId=21300000016687
41,21300000013681,[[Ecclesiasticum]] (Fjärdingen 22:1),SE-C,Domkapitel (1 byggnad),1600-talets slut,,,Uppsala,59.85853,17.63326,Ecclesiasticum 03.jpg,,//sv.wikipedia.org/w/index.php?title=Lista_%C3%B6ver_byggnadsminnen_i_Uppsala_l%C3%A4n&oldid=30716291,2016-06-08 06:51:46,Ecclesiasticum,http://www.bebyggelseregistret.raa.se/bbr2/anlaggning/visaHistorik.raa?page=historik&visaHistorik=true&anlaggningId=21300000013681
42,21300000013473,[[Svettis|Gymnastikhuset i Uppsala]] (Fjärdingen 34:1;f.d. Stadsträdgården 34:1),SE-C,"Skola,Universitet,Högskola (1 byggnad)",1910,,,Uppsala,59.85375,17.63978,Svettis.jpg,,//sv.wikipedia.org/w/index.php?title=Lista_%C3%B6ver_byggnadsminnen_i_Uppsala_l%C3%A4n&oldid=30716291,2016-06-08 06:51:46,Svettis,http://www.bebyggelseregistret.raa.se/bbr2/anlaggning/visaHistorik.raa?page=historik&visaHistorik=true&anlaggningId=21300000013473
43,21300000013458,[[Ihregården]] (Fjärdingen 19:4),SE-C,Borgargård (3 byggnader),1754,,,Uppsala,59.85598,17.63015,Ihregården.jpg,,//sv.wikipedia.org/w/index.php?title=Lista_%C3%B6ver_byggnadsminnen_i_Uppsala_l%C3%A4n&oldid=30716291,2016-06-08 06:51:46,Ihregården,http://www.bebyggelseregistret.raa.se/bbr2/anlaggning/visaHistorik.raa?page=historik&visaHistorik=true&anlaggningId=21300000013458
44,21300000013467,[[Rektorsgården_i_Uppsala|Katedralskolans f.d. rektorsgård]] (Luthagen 75:1),SE-C,Ämbets- och tjänstemannaboställe (1 byggnad),1867,,,Uppsala,59.86048,17.62656,Rektorsgården i Uppsala.jpg,,//sv.wikipedia.org/w/index.php?title=Lista_%C3%B6ver_byggnadsminnen_i_Uppsala_l%C3%A4n&oldid=30716291,2016-06-08 06:51:46,Rektorsgården_i_Uppsala,http://www.bebyggelseregistret.raa.se/bbr2/anlaggning/visaHistorik.raa?page=historik&visaHistorik=true&anlaggningId=21300000013467
45,21300000013615,"[[Konsistoriehuset, Uppsala|Konsistoriehuset]] (Fjärdingen 22:2; fd 22:1)",SE-C,Ämbetsverk (1 byggnad),1757,,,Uppsala,59.85841,17.63244,Uppsala Konsistoriehuset 2.jpg,,//sv.wikipedia.org/w/index.php?title=Lista_%C3%B6ver_byggnadsminnen_i_Uppsala_l%C3%A4n&oldid=30716291,2016-06-08 06:51:46,"Konsistoriehuset,_Uppsala",http://www.bebyggelseregistret.raa.se/bbr2/anlaggning/visaHistorik.raa?page=historik&visaHistorik=true&anlaggningId=21300000013615
46,21300000013415,"[[Kvarteret Rosendal, Uppsala|Kvarteret Rosendal]] (Fjärdingen 13:2)",SE-C,Ämbets- och tjänstemannaboställe (1 byggnad),1620-talet,,,Uppsala,59.85897,17.62892,Kvarteret Rosendal.jpg,,//sv.wikipedia.org/w/index.php?title=Lista_%C3%B6ver_byggnadsminnen_i_Uppsala_l%C3%A4n&oldid=30716291,2016-06-08 06:51:46,"Kvarteret_Rosendal,_Uppsala",http://www.bebyggelseregistret.raa.se/bbr2/anlaggning/visaHistorik.raa?page=historik&visaHistorik=true&anlaggningId=21300000013415
47,21300000013620,"[[Kvarteret Munken]], [[Laboratorium Chemicum]] (Fjärdingen 30:3; f.d. Munken 11)",SE-C,"Skola,Universitetsinstitution (4 byggnader)",1753-1867,,,Uppsala,59.85539,17.63968,Kvarteret Munken Uppsala 1901.jpg,,//sv.wikipedia.org/w/index.php?title=Lista_%C3%B6ver_byggnadsminnen_i_Uppsala_l%C3%A4n&oldid=30716291,2016-06-08 06:51:46,Kvarteret_Munken,http://www.bebyggelseregistret.raa.se/bbr2/anlaggning/visaHistorik.raa?page=historik&visaHistorik=true&anlaggningId=21300000013620
48,21300000013684,[[Landshövdingens stall]] (Kåbo 5:3; f.d. 5:1),SE-C,Residens (1 byggnad),1820-talet,,,Uppsala,59.85168,17.63396,Pelle svanslos huset Uppsala.JPG,,//sv.wikipedia.org/w/index.php?title=Lista_%C3%B6ver_byggnadsminnen_i_Uppsala_l%C3%A4n&oldid=30716291,2016-06-08 06:51:46,Landshövdingens_stall,http://www.bebyggelseregistret.raa.se/bbr2/anlaggning/visaHistorik.raa?page=historik&visaHistorik=true&anlaggningId=21300000013684
49,21300000013710,"[[Lena socken, Uppland|Lena]] gamla sockenstugan (Lena 1:46; f.d. Prästgården 1:46)",SE-C,Sockenstuga (1 byggnad),1733,,,Uppsala,60.01297,17.72201,Lena sockenstuga 2012.jpg,,//sv.wikipedia.org/w/index.php?title=Lista_%C3%B6ver_byggnadsminnen_i_Uppsala_l%C3%A4n&oldid=30716291,2016-06-08 06:51:46,"Lena_socken,_Uppland",http://www.bebyggelseregistret.raa.se/bbr2/anlaggning/visaHistorik.raa?page=historik&visaHistorik=true&anlaggningId=21300000013710
50,21300000013261,[[Linnés Sävja]] (Sävja 1:55),SE-C,"Fritidshus,Sommarvilla (8 byggnader)",1600-talet,,,Uppsala,59.8196,17.70111,Linnes Sävja1.jpg,,//sv.wikipedia.org/w/index.php?title=Lista_%C3%B6ver_byggnadsminnen_i_Uppsala_l%C3%A4n&oldid=30716291,2016-06-08 06:51:46,Linnés_Sävja,http://www.bebyggelseregistret.raa.se/bbr2/anlaggning/visaHistorik.raa?page=historik&visaHistorik=true&anlaggningId=21300000013261
51,21300000013598,[[Linnés Hammarby]] (Danmarks-Hammarby 5:1),SE-C,Bostadshus (6 byggnader),1762,,,Uppsala,59.81783,17.77603,CarlvonLinne Hammarby.jpg,,//sv.wikipedia.org/w/index.php?title=Lista_%C3%B6ver_byggnadsminnen_i_Uppsala_l%C3%A4n&oldid=30716291,2016-06-08 06:51:46,Linnés_Hammarby,http://www.bebyggelseregistret.raa.se/bbr2/anlaggning/visaHistorik.raa?page=historik&visaHistorik=true&anlaggningId=21300000013598
52,21300000013621,[[Linnéträdgården]] (Dragarbrunn 4:7; f.d. Örtedalen 7),SE-C,Botanisk trädgård (4 byggnader),1743,,,Uppsala,59.86228,17.63429,Linnéträdgården 1.jpg,,//sv.wikipedia.org/w/index.php?title=Lista_%C3%B6ver_byggnadsminnen_i_Uppsala_l%C3%A4n&oldid=30716291,2016-06-08 06:51:46,Linnéträdgården,http://www.bebyggelseregistret.raa.se/bbr2/anlaggning/visaHistorik.raa?page=historik&visaHistorik=true&anlaggningId=21300000013621
53,21300000013437,[[Villa Lugnet|Lägenheten Lugnet]] (Kåbo 5:1),SE-C,Bostadshus (2 byggnader),1700-talets slut,,,Uppsala,59.85071,17.63289,Villa Lugnet Uppsala.JPG,,//sv.wikipedia.org/w/index.php?title=Lista_%C3%B6ver_byggnadsminnen_i_Uppsala_l%C3%A4n&oldid=30716291,2016-06-08 06:51:46,Villa_Lugnet,http://www.bebyggelseregistret.raa.se/bbr2/anlaggning/visaHistorik.raa?page=historik&visaHistorik=true&anlaggningId=21300000013437
54,21300000013424,[[Polacksbacken]] (f.d. [[Upplands regemente (signal)|S1]]) (Kronåsen 1:15),SE-C,Kasernetablissemang (9 byggnader),1912,,,Uppsala,59.84083,17.64999,"Pollacksbacken, hus4.JPG",,//sv.wikipedia.org/w/index.php?title=Lista_%C3%B6ver_byggnadsminnen_i_Uppsala_l%C3%A4n&oldid=30716291,2016-06-08 06:51:46,Polacksbacken,http://www.bebyggelseregistret.raa.se/bbr2/anlaggning/visaHistorik.raa?page=historik&visaHistorik=true&anlaggningId=21300000013424
55,21300000013652,[[Regnellianum]] (Fjärdingen 29:3),SE-C,"Skola,Universitetsinstitution (1 byggnad)",1892,,,Uppsala,59.85549,17.63761,Regnellianum side.jpg,,//sv.wikipedia.org/w/index.php?title=Lista_%C3%B6ver_byggnadsminnen_i_Uppsala_l%C3%A4n&oldid=30716291,2016-06-08 06:51:46,Regnellianum,http://www.bebyggelseregistret.raa.se/bbr2/anlaggning/visaHistorik.raa?page=historik&visaHistorik=true&anlaggningId=21300000013652
56,21300000013268,[[Salsta slott]] (Lena-Salsta 1:5),SE-C,Slott (9 byggnader),1670-talet,,,Uppsala,60.04742,17.74085,Salstaslott.jpg,,//sv.wikipedia.org/w/index.php?title=Lista_%C3%B6ver_byggnadsminnen_i_Uppsala_l%C3%A4n&oldid=30716291,2016-06-08 06:51:46,Salsta_slott,http://www.bebyggelseregistret.raa.se/bbr2/anlaggning/visaHistorik.raa?page=historik&visaHistorik=true&anlaggningId=21300000013268
57,21300000013297,[[Skuttunge prästgård]] (Skuttunge 10:4; f.d. 10:1),SE-C,"Boställe,Prästgård (8 byggnader)",1776,,,Uppsala,59.99492,17.50222,Skuttunge g a prästgård 110921a.jpg,,//sv.wikipedia.org/w/index.php?title=Lista_%C3%B6ver_byggnadsminnen_i_Uppsala_l%C3%A4n&oldid=30716291,2016-06-08 06:51:46,Skuttunge_prästgård,http://www.bebyggelseregistret.raa.se/bbr2/anlaggning/visaHistorik.raa?page=historik&visaHistorik=true&anlaggningId=21300000013297
58,21300000013720,[[Skytteanum]] (Fjärdingen 26:4; f.d. Domen 10),SE-C,"Skola,Universitetsinstitution (2 byggnader)",1300-1400-talet,,,Uppsala,59.85786,17.63509,Skytteanum i Uppsala.jpg,,//sv.wikipedia.org/w/index.php?title=Lista_%C3%B6ver_byggnadsminnen_i_Uppsala_l%C3%A4n&oldid=30716291,2016-06-08 06:51:46,Skytteanum,http://www.bebyggelseregistret.raa.se/bbr2/anlaggning/visaHistorik.raa?page=historik&visaHistorik=true&anlaggningId=21300000013720
59,21300000013420,[[Slottsbiografen]] (Fjärdingen 27:1),SE-C,"Biograf,Klubbhus (1 byggnad)",1914,,,Uppsala,59.85629,17.63476,Slottsbiografen.jpg,,//sv.wikipedia.org/w/index.php?title=Lista_%C3%B6ver_byggnadsminnen_i_Uppsala_l%C3%A4n&oldid=30716291,2016-06-08 06:51:46,Slottsbiografen,http://www.bebyggelseregistret.raa.se/bbr2/anlaggning/visaHistorik.raa?page=historik&visaHistorik=true&anlaggningId=21300000013420
60,21300000021308,Ställverket vid [[Uppsala centralstation]] (Dragarbrunn 32:1),SE-C,Järnvägsanläggning (1 byggnad),1913,,,Uppsala,59.85591,17.65085,Ställverket vid Uppsala centralstation (Dragarbrunn 32 1).jpg,,//sv.wikipedia.org/w/index.php?title=Lista_%C3%B6ver_byggnadsminnen_i_Uppsala_l%C3%A4n&oldid=30716291,2016-06-08 06:51:46,Uppsala_centralstation,http://www.bebyggelseregistret.raa.se/bbr2/anlaggning/visaHistorik.raa?page=historik&visaHistorik=true&anlaggningId=21300000021308
61,21300000013431,[[Uppsala hälsobrunn]] och [[Eklundshof]] (Kronåsen 1:27; f.d. 1:17),SE-C,Hälsobrunn (8 byggnader),1832,,,Uppsala,59.84311,17.64854,Eklundshof.JPG,,//sv.wikipedia.org/w/index.php?title=Lista_%C3%B6ver_byggnadsminnen_i_Uppsala_l%C3%A4n&oldid=30716291,2016-06-08 06:51:46,Uppsala_hälsobrunn,http://www.bebyggelseregistret.raa.se/bbr2/anlaggning/visaHistorik.raa?page=historik&visaHistorik=true&anlaggningId=21300000013431
62,21300000013609,[[Uppsala slott]] (Fjärdingen 33:1),SE-C,Riksfäste (1 byggnad),1540-talet,,,Uppsala,59.85359,17.63543,Uppsala slott as seen from the botanical garden.jpg,,//sv.wikipedia.org/w/index.php?title=Lista_%C3%B6ver_byggnadsminnen_i_Uppsala_l%C3%A4n&oldid=30716291,2016-06-08 06:51:46,Uppsala_slott,http://www.bebyggelseregistret.raa.se/bbr2/anlaggning/visaHistorik.raa?page=historik&visaHistorik=true&anlaggningId=21300000013609
63,21300000013384,[[Uppsala centralstation|Uppsala stationshus (Uppsala central)]] (Dragarbrunn 32:1),SE-C,Järnvägsstation (1 byggnad),1866,,,Uppsala,59.85878,17.64588,Uppsala centralstation.jpg,,//sv.wikipedia.org/w/index.php?title=Lista_%C3%B6ver_byggnadsminnen_i_Uppsala_l%C3%A4n&oldid=30716291,2016-06-08 06:51:46,Uppsala_centralstation,http://www.bebyggelseregistret.raa.se/bbr2/anlaggning/visaHistorik.raa?page=historik&visaHistorik=true&anlaggningId=21300000013384
64,21300000013474,[[Vaksalaskolan]] (Fålhagen 12:1),SE-C,"Skola,Folkskola (1 byggnad)",1927,,,Uppsala,59.86112,17.64823,Vaksalaskolan.JPG,,//sv.wikipedia.org/w/index.php?title=Lista_%C3%B6ver_byggnadsminnen_i_Uppsala_l%C3%A4n&oldid=30716291,2016-06-08 06:51:46,Vaksalaskolan,http://www.bebyggelseregistret.raa.se/bbr2/anlaggning/visaHistorik.raa?page=historik&visaHistorik=true&anlaggningId=21300000013474
65,21300000013392,[[Vice pastorshuset]] (Fjärdingen 22:1),SE-C,"Boställe,Prästgård (1 byggnad)",1500-talet eller tidigare,,,Uppsala,59.85854,17.63443,Vice pastorshuset 02.jpg,,//sv.wikipedia.org/w/index.php?title=Lista_%C3%B6ver_byggnadsminnen_i_Uppsala_l%C3%A4n&oldid=30716291,2016-06-08 06:51:46,Vice_pastorshuset,http://www.bebyggelseregistret.raa.se/bbr2/anlaggning/visaHistorik.raa?page=historik&visaHistorik=true&anlaggningId=21300000013392
66,21300000013259,[[Viks slott]] (Viks mur 1:1),SE-C,Slott (2 byggnader),1400-talet,,,Uppsala,59.73614,17.46204,Viks slott.jpg,,//sv.wikipedia.org/w/index.php?title=Lista_%C3%B6ver_byggnadsminnen_i_Uppsala_l%C3%A4n&oldid=30716291,2016-06-08 06:51:46,Viks_slott,http://www.bebyggelseregistret.raa.se/bbr2/anlaggning/visaHistorik.raa?page=historik&visaHistorik=true&anlaggningId=21300000013259
67,21300000013463,[[Villa Göth]] (Kåbo 49:8),SE-C,Bostadshus (1 byggnad),1950,,,Uppsala,59.84397,17.62979,Villa Göth.jpg,,//sv.wikipedia.org/w/index.php?title=Lista_%C3%B6ver_byggnadsminnen_i_Uppsala_l%C3%A4n&oldid=30716291,2016-06-08 06:51:46,Villa_Göth,http://www.bebyggelseregistret.raa.se/bbr2/anlaggning/visaHistorik.raa?page=historik&visaHistorik=true&anlaggningId=21300000013463
68,21300000013482,[[Vänge prästgård]] (Vänge 2:28),SE-C,"Boställe,Prästgård (4 byggnader)",1850,,,Uppsala,59.85714,17.43095,Vänge prästgård.jpg,,//sv.wikipedia.org/w/index.php?title=Lista_%C3%B6ver_byggnadsminnen_i_Uppsala_l%C3%A4n&oldid=30716291,2016-06-08 06:51:46,Vänge_prästgård,http://www.bebyggelseregistret.raa.se/bbr2/anlaggning/visaHistorik.raa?page=historik&visaHistorik=true&anlaggningId=21300000013482
69,21300000013461,[[Zoologen]] och [[Paleontologen]] (i [[Kvarteret Lagerträdet|kv. Lagerträdet]]) (Kåbo 34:12),SE-C,"Skola,Universitetsinstitution (2 byggnader)","1909 (Zoologen), 1929 (Paleontologen)",,,Uppsala,59.84969,17.62404,Zoologen.jpg,,//sv.wikipedia.org/w/index.php?title=Lista_%C3%B6ver_byggnadsminnen_i_Uppsala_l%C3%A4n&oldid=30716291,2016-06-08 06:51:46,Zoologen,http://www.bebyggelseregistret.raa.se/bbr2/anlaggning/visaHistorik.raa?page=historik&visaHistorik=true&anlaggningId=21300000013461
70,21300000013623,"[[Observatorieparken, Uppsala|Observatorieparken]] (Luthagen 62:4; f.d. 62:1)",SE-C,Observatorium (13 byggnader),1848,,,Uppsala,59.85736,17.62236,Observatorieparken i Uppsala.jpg,,//sv.wikipedia.org/w/index.php?title=Lista_%C3%B6ver_byggnadsminnen_i_Uppsala_l%C3%A4n&oldid=30716291,2016-06-08 06:51:46,"Observatorieparken,_Uppsala",http://www.bebyggelseregistret.raa.se/bbr2/anlaggning/visaHistorik.raa?page=historik&visaHistorik=true&anlaggningId=21300000013623
71,21300000013481,[[Ärkebiskopsgården]] (Fjärdingen 21:1),SE-C,Biskopsgård (4 byggnader),1330-talet,,,Uppsala,59.85722,17.63134,Archbishop's palace in Uppsala.jpg,,//sv.wikipedia.org/w/index.php?title=Lista_%C3%B6ver_byggnadsminnen_i_Uppsala_l%C3%A4n&oldid=30716291,2016-06-08 06:51:46,Ärkebiskopsgården,http://www.bebyggelseregistret.raa.se/bbr2/anlaggning/visaHistorik.raa?page=historik&visaHistorik=true&anlaggningId=21300000013481
72,21300000013661,[[Marma läger|K 0188 (Marma läger)]] (Älvsäter 1:3),SE-C,"Mötes-, exercis- och lägerplats (22 byggnader)",1880- och 1890-talen (Huvudsakligen),[[Axel Kumlien|Axel]] och [[Hjalmar Kumlien]],[[Marma]],Älvkarleby,60.48251,17.42668,Marma läger 16.jpg,,//sv.wikipedia.org/w/index.php?title=Lista_%C3%B6ver_byggnadsminnen_i_Uppsala_l%C3%A4n&oldid=30716291,2016-06-08 06:51:46,Marma_läger,http://www.bebyggelseregistret.raa.se/bbr2/anlaggning/visaHistorik.raa?page=historik&visaHistorik=true&anlaggningId=21300000013661
73,21300000019900,"[[Dannemora gruvor]], gruvlaven, sovrings- och anrikningsverket, gruvstugan och transportbandet (Harvik 4:28)",SE-C,Gruva (2 byggnader),1948,,,Östhammar,60.20423,17.86114,The pithead Dannemora mines Sweden.JPG,,//sv.wikipedia.org/w/index.php?title=Lista_%C3%B6ver_byggnadsminnen_i_Uppsala_l%C3%A4n&oldid=30716291,2016-06-08 06:51:46,Dannemora_gruvor,http://www.bebyggelseregistret.raa.se/bbr2/anlaggning/visaHistorik.raa?page=historik&visaHistorik=true&anlaggningId=21300000019900
74,21300000013504,[[Blåbandshuset]] (Börstils-Söderby 4:13),SE-C,Nykterhetsloge (2 byggnader),1906,,,Östhammar,60.29489,18.40507,,,//sv.wikipedia.org/w/index.php?title=Lista_%C3%B6ver_byggnadsminnen_i_Uppsala_l%C3%A4n&oldid=30716291,2016-06-08 06:51:46,Blåbandshuset,http://www.bebyggelseregistret.raa.se/bbr2/anlaggning/visaHistorik.raa?page=historik&visaHistorik=true&anlaggningId=21300000013504
75,21300000013631,[[Djursten]]s fyrplats (Västerbyn 3:2),SE-C,Fyrplats (1 byggnad),1839,,,Östhammar,60.36902,18.4012,Djurstens fyrplats fyren.jpg,,//sv.wikipedia.org/w/index.php?title=Lista_%C3%B6ver_byggnadsminnen_i_Uppsala_l%C3%A4n&oldid=30716291,2016-06-08 06:51:46,Djursten,http://www.bebyggelseregistret.raa.se/bbr2/anlaggning/visaHistorik.raa?page=historik&visaHistorik=true&anlaggningId=21300000013631
76,21300000013326,"[[Dannemora gruvor]], f.d. Gruvarbetartorpet (Gryttjom 2:12)",SE-C,Gruva (4 byggnader),1845,,,Östhammar,60.195,17.81795,Gryttjom 7097.tif,,//sv.wikipedia.org/w/index.php?title=Lista_%C3%B6ver_byggnadsminnen_i_Uppsala_l%C3%A4n&oldid=30716291,2016-06-08 06:51:46,Dannemora_gruvor,http://www.bebyggelseregistret.raa.se/bbr2/anlaggning/visaHistorik.raa?page=historik&visaHistorik=true&anlaggningId=21300000013326
77,21300000013575,[[Forsmarks bruk]] (Forsmark 3:45; f.d. 3:17),SE-C,"Herrgård,Bruksherrgård,Bruk (41 byggnader)",1720,,,Östhammar,60.37107,18.15327,Osthammar Landmark.jpg,,//sv.wikipedia.org/w/index.php?title=Lista_%C3%B6ver_byggnadsminnen_i_Uppsala_l%C3%A4n&oldid=30716291,2016-06-08 06:51:46,Forsmarks_bruk,http://www.bebyggelseregistret.raa.se/bbr2/anlaggning/visaHistorik.raa?page=historik&visaHistorik=true&anlaggningId=21300000013575
78,21300000013512,"[[Gimo herrgård]] och inspektorsbostaden vid Gimo bruk (Gimo 13:3, 11:186, 15:1 och 8:89)",SE-C,"Herrgård,Bruksherrgård,Bruk (10 byggnader)",1767,,,Östhammar,60.17878,18.17175,Gimo Herrgård.jpg,,//sv.wikipedia.org/w/index.php?title=Lista_%C3%B6ver_byggnadsminnen_i_Uppsala_l%C3%A4n&oldid=30716291,2016-06-08 06:51:46,Gimo_herrgård,http://www.bebyggelseregistret.raa.se/bbr2/anlaggning/visaHistorik.raa?page=historik&visaHistorik=true&anlaggningId=21300000013512
79,21300000013311,[[Granbo gård]] (Norrskedika 5:16),SE-C,"Fritidshus,Sommarvilla,Bondgård (5 byggnader)",1870,,,Östhammar,60.28981,18.32889,,,//sv.wikipedia.org/w/index.php?title=Lista_%C3%B6ver_byggnadsminnen_i_Uppsala_l%C3%A4n&oldid=30716291,2016-06-08 06:51:46,Granbo_gård,http://www.bebyggelseregistret.raa.se/bbr2/anlaggning/visaHistorik.raa?page=historik&visaHistorik=true&anlaggningId=21300000013311
80,21300000013561,"[[Dannemora gruvor]], Nordschaktlaven (Films-Österby 3:5)",SE-C,Gruva (1 byggnad),1903,,,Östhammar,60.20947,17.86614,,,//sv.wikipedia.org/w/index.php?title=Lista_%C3%B6ver_byggnadsminnen_i_Uppsala_l%C3%A4n&oldid=30716291,2016-06-08 06:51:46,Dannemora_gruvor,http://www.bebyggelseregistret.raa.se/bbr2/anlaggning/visaHistorik.raa?page=historik&visaHistorik=true&anlaggningId=21300000013561
81,21300000019897,"[[Dannemora gruvor]], Norra maskin (Films-Österby 3:5)",SE-C,Gruva (1 byggnad),1888,,,Östhammar,60.20826,17.86514,,,//sv.wikipedia.org/w/index.php?title=Lista_%C3%B6ver_byggnadsminnen_i_Uppsala_l%C3%A4n&oldid=30716291,2016-06-08 06:51:46,Dannemora_gruvor,http://www.bebyggelseregistret.raa.se/bbr2/anlaggning/visaHistorik.raa?page=historik&visaHistorik=true&anlaggningId=21300000019897
82,21300000019901,"[[Dannemora gruvor]], [[Triewalds maskinhus]] (Harvik 4:28)",SE-C,Gruva (1 byggnad),1728,,,Östhammar,60.2038,17.85563,Engine house Mårten Triewald.JPG,,//sv.wikipedia.org/w/index.php?title=Lista_%C3%B6ver_byggnadsminnen_i_Uppsala_l%C3%A4n&oldid=30716291,2016-06-08 06:51:46,Dannemora_gruvor,http://www.bebyggelseregistret.raa.se/bbr2/anlaggning/visaHistorik.raa?page=historik&visaHistorik=true&anlaggningId=21300000019901
83,21300000013634,"[[Örskär]]s fyrplats (Fyrtäppan 1:1, Norrboda 25:1)",SE-C,Fyrplats (8 byggnader),1739,,,Östhammar,60.52585,18.37364,Örskars fyr.JPG,,//sv.wikipedia.org/w/index.php?title=Lista_%C3%B6ver_byggnadsminnen_i_Uppsala_l%C3%A4n&oldid=30716291,2016-06-08 06:51:46,Örskär,http://www.bebyggelseregistret.raa.se/bbr2/anlaggning/visaHistorik.raa?page=historik&visaHistorik=true&anlaggningId=21300000013634
84,21300000013565,"[[Österbybruk|Österby bruk]] (Österbybruk 1:255, 1:332, 1:305, 1:355 och 1:116)",SE-C,"Bruk,Herrgård,Bruksherrgård,Kyrka (78 byggnader)",1760-talet,,,Östhammar,60.19483,17.90287,Österbybruk vallonsmedjan.jpg,,//sv.wikipedia.org/w/index.php?title=Lista_%C3%B6ver_byggnadsminnen_i_Uppsala_l%C3%A4n&oldid=30716291,2016-06-08 06:51:46,Österbybruk,http://www.bebyggelseregistret.raa.se/bbr2/anlaggning/visaHistorik.raa?page=historik&visaHistorik=true&anlaggningId=21300000013565
85,21300000014049,"[[Hellerup, Falkenbergs kommun|Borgen Hällerup]] (Hällarp 1:7)",SE-N,"Herrgård, säteri (1 byggnad)",1684-1740 (mellan dessa år),okänd,"[[Hellerup, Falkenbergs kommun|Hellerup]]",Falkenberg,56.96396,12.52913,Borgen Hällerup.JPG,"Hellerup, Falkenberg Municipality",//sv.wikipedia.org/w/index.php?title=Lista_%C3%B6ver_byggnadsminnen_i_Hallands_l%C3%A4n&oldid=33805427,2016-06-08 06:51:47,"Hellerup,_Falkenbergs_kommun",http://www.bebyggelseregistret.raa.se/bbr2/anlaggning/visaHistorik.raa?page=historik&visaHistorik=true&anlaggningId=21300000014049
86,21300000014082,[[Olofsbo Hembygdsgård]] (Olofsbo 4:34),SE-N,Bondgård (4 byggnader),1838,,,Falkenberg,56.92899,12.42167,,,//sv.wikipedia.org/w/index.php?title=Lista_%C3%B6ver_byggnadsminnen_i_Hallands_l%C3%A4n&oldid=33805427,2016-06-08 06:51:47,Olofsbo_Hembygdsgård,http://www.bebyggelseregistret.raa.se/bbr2/anlaggning/visaHistorik.raa?page=historik&visaHistorik=true&anlaggningId=21300000014082
87,21300000022013,[[Rörbeckska huset]] och Rådhustorget (Svea 10 och Innerstaden 3:1),SE-N,"[[Falkenbergs rådhus|Rådhus]], [[Falkenbergs stadshus|stadshus]], telegrafstation och televerk (3 byggnader)","1826 (Rådhuset), 1929 (Rörbeckska huset), 1960 (Stadshuset)",,[[Falkenberg]],Falkenberg,56.90425,12.4919,StadshusetFalkenberg.jpg,Rörbeckska huset och Rådhustorget,//sv.wikipedia.org/w/index.php?title=Lista_%C3%B6ver_byggnadsminnen_i_Hallands_l%C3%A4n&oldid=33805427,2016-06-08 06:51:47,Rörbeckska_huset,http://www.bebyggelseregistret.raa.se/bbr2/anlaggning/visaHistorik.raa?page=historik&visaHistorik=true&anlaggningId=21300000022013
88,21300000014010,[[Tullbron]] (Herting 2:1),SE-N,Bro (1 byggnad),1761,,[[Falkenberg]],Falkenberg,56.90296,12.49417,"Tullbron2, Falkenberg.JPG","Tullbron, Falkenberg",//sv.wikipedia.org/w/index.php?title=Lista_%C3%B6ver_byggnadsminnen_i_Hallands_l%C3%A4n&oldid=33805427,2016-06-08 06:51:47,Tullbron,http://www.bebyggelseregistret.raa.se/bbr2/anlaggning/visaHistorik.raa?page=historik&visaHistorik=true&anlaggningId=21300000014010
89,21300000014037,"[[Röda Kvarn, Halmstad|Biografen Röda Kvarn]] (Drottning Kristina 1)",SE-N,Biograf (1 byggnad),1925,,,Halmstad,56.67612,12.85863,Roda kvarn.JPG,,//sv.wikipedia.org/w/index.php?title=Lista_%C3%B6ver_byggnadsminnen_i_Hallands_l%C3%A4n&oldid=33805427,2016-06-08 06:51:47,"Röda_Kvarn,_Halmstad",http://www.bebyggelseregistret.raa.se/bbr2/anlaggning/visaHistorik.raa?page=historik&visaHistorik=true&anlaggningId=21300000014037
90,21300000014108,"[[Televerkets hus, Halmstad|Televerkets hus]] (Gråmunken 1; f.d. Gråmunken 24 )",SE-N,Telegrafstation och televerk (1 byggnad),1925,,,Halmstad,56.67716,12.85758,"Televerkets hus, Halmstad.jpg",,//sv.wikipedia.org/w/index.php?title=Lista_%C3%B6ver_byggnadsminnen_i_Hallands_l%C3%A4n&oldid=33805427,2016-06-08 06:51:47,"Televerkets_hus,_Halmstad",http://www.bebyggelseregistret.raa.se/bbr2/anlaggning/visaHistorik.raa?page=historik&visaHistorik=true&anlaggningId=21300000014108
91,21300000014028,[[Brooktorpsgården]] (Broktorp 11),SE-N,Borgargård (1 byggnad),1700-talets början,,,Halmstad,56.6738,12.85538,Brooktorpsgården.JPG,,//sv.wikipedia.org/w/index.php?title=Lista_%C3%B6ver_byggnadsminnen_i_Hallands_l%C3%A4n&oldid=33805427,2016-06-08 06:51:47,Brooktorpsgården,http://www.bebyggelseregistret.raa.se/bbr2/anlaggning/visaHistorik.raa?page=historik&visaHistorik=true&anlaggningId=21300000014028
92,21300000025526,[[Bruno Mathssons sommarhus]] (Onsjö 32:16),SE-N,"Fritidshus, sommarvilla (1 byggnad)",1960,,,Halmstad,56.66255,12.73922,Bruno Mathssons sommarhus 01.JPG,,//sv.wikipedia.org/w/index.php?title=Lista_%C3%B6ver_byggnadsminnen_i_Hallands_l%C3%A4n&oldid=33805427,2016-06-08 06:51:47,Bruno_Mathssons_sommarhus,http://www.bebyggelseregistret.raa.se/bbr2/anlaggning/visaHistorik.raa?page=historik&visaHistorik=true&anlaggningId=21300000025526
93,21300000014040,[[Halmstads slott]] (Slottet 1),SE-N,Riksfäste (1 byggnad),1600,,,Halmstad,56.67137,12.85763,Halmstads slott-2.JPG,,//sv.wikipedia.org/w/index.php?title=Lista_%C3%B6ver_byggnadsminnen_i_Hallands_l%C3%A4n&oldid=33805427,2016-06-08 06:51:47,Halmstads_slott,http://www.bebyggelseregistret.raa.se/bbr2/anlaggning/visaHistorik.raa?page=historik&visaHistorik=true&anlaggningId=21300000014040
94,21300000014033,[[Kirsten Munks hus]] (Kirsten Munck 1),SE-N,"Borgargård, handelsgård (1 byggnad)",1620-talet,,,Halmstad,56.67555,12.85904,Kirsten Munks hus.jpg,,//sv.wikipedia.org/w/index.php?title=Lista_%C3%B6ver_byggnadsminnen_i_Hallands_l%C3%A4n&oldid=33805427,2016-06-08 06:51:47,Kirsten_Munks_hus,http://www.bebyggelseregistret.raa.se/bbr2/anlaggning/visaHistorik.raa?page=historik&visaHistorik=true&anlaggningId=21300000014033
95,21300000014007,[[Mostorp]] (Mostorp 5:1),SE-N,"Herrgård, säteri (2 byggnader)",1880,,,Halmstad,56.83959,12.72355,Mostorp.JPG,,//sv.wikipedia.org/w/index.php?title=Lista_%C3%B6ver_byggnadsminnen_i_Hallands_l%C3%A4n&oldid=33805427,2016-06-08 06:51:47,Mostorp,http://www.bebyggelseregistret.raa.se/bbr2/anlaggning/visaHistorik.raa?page=historik&visaHistorik=true&anlaggningId=21300000014007
96,21300000026313,[[Norre Port]] (Halmstad 5:1),SE-N,"Befästning, tullhus och tullstation (1 byggnad)",1603,,,Halmstad,56.67744,12.85929,Norre Port i Halmstad.jpg,,//sv.wikipedia.org/w/index.php?title=Lista_%C3%B6ver_byggnadsminnen_i_Hallands_l%C3%A4n&oldid=33805427,2016-06-08 06:51:47,Norre_Port,http://www.bebyggelseregistret.raa.se/bbr2/anlaggning/visaHistorik.raa?page=historik&visaHistorik=true&anlaggningId=21300000026313
97,21300000014023,[[Särdals kvarn]] (Särdal 1:7),SE-N,Kvarn (2 byggnader),1890,,,Halmstad,56.74146,12.65789,Särdals kvarn1.jpg,,//sv.wikipedia.org/w/index.php?title=Lista_%C3%B6ver_byggnadsminnen_i_Hallands_l%C3%A4n&oldid=33805427,2016-06-08 06:51:47,Särdals_kvarn,http://www.bebyggelseregistret.raa.se/bbr2/anlaggning/visaHistorik.raa?page=historik&visaHistorik=true&anlaggningId=21300000014023
98,21300000014084,[[Tylöns fyrplats]] (Tylön 1:1),SE-N,Fyrplats (6 byggnader),1870,,,Halmstad,56.64685,12.71038,Tylöns Fyr.JPG,,//sv.wikipedia.org/w/index.php?title=Lista_%C3%B6ver_byggnadsminnen_i_Hallands_l%C3%A4n&oldid=33805427,2016-06-08 06:51:47,Tylöns_fyrplats,http://www.bebyggelseregistret.raa.se/bbr2/anlaggning/visaHistorik.raa?page=historik&visaHistorik=true&anlaggningId=21300000014084
99,21300000014088,[[Vapnö slott]] (Vapnö 6:2; f.d. Vapnö 2:1),SE-N,Herrgård (3 byggnader),1750-talet,,,Halmstad,56.71296,12.84102,Vapnö slott.jpg,,//sv.wikipedia.org/w/index.php?title=Lista_%C3%B6ver_byggnadsminnen_i_Hallands_l%C3%A4n&oldid=33805427,2016-06-08 06:51:47,Vapnö_slott,http://www.bebyggelseregistret.raa.se/bbr2/anlaggning/visaHistorik.raa?page=historik&visaHistorik=true&anlaggningId=21300000014088
100,21300000014083,[[Brunnsbacka sågkvarn]] (Brunnsbacka 1:2-3),SE-N,Kvarn (1 byggnad),1870-talet,,[[Södra Unnaryd]],Hylte,56.98186,13.54039,Brunnsbacka.jpg,,//sv.wikipedia.org/w/index.php?title=Lista_%C3%B6ver_byggnadsminnen_i_Hallands_l%C3%A4n&oldid=33805427,2016-06-08 06:51:47,Brunnsbacka_sågkvarn,http://www.bebyggelseregistret.raa.se/bbr2/anlaggning/visaHistorik.raa?page=historik&visaHistorik=true&anlaggningId=21300000014083
101,21300000014085,[[Rydöbruks missionshus]] (Rydö 1:13),SE-N,Frikyrka (1 byggnad),1900,,[[Torup]],Hylte,56.95998,13.13456,,,//sv.wikipedia.org/w/index.php?title=Lista_%C3%B6ver_byggnadsminnen_i_Hallands_l%C3%A4n&oldid=33805427,2016-06-08 06:51:47,Rydöbruks_missionshus,http://www.bebyggelseregistret.raa.se/bbr2/anlaggning/visaHistorik.raa?page=historik&visaHistorik=true&anlaggningId=21300000014085
102,21300000025527,[[Slätteryds byskola]] (Slätteryd 1:7),SE-N,"Skola, byskola (4 byggnader)",1913,,Södra Unnaryd,Hylte,56.97121,13.62576,,,//sv.wikipedia.org/w/index.php?title=Lista_%C3%B6ver_byggnadsminnen_i_Hallands_l%C3%A4n&oldid=33805427,2016-06-08 06:51:47,Slätteryds_byskola,http://www.bebyggelseregistret.raa.se/bbr2/anlaggning/visaHistorik.raa?page=historik&visaHistorik=true&anlaggningId=21300000025527
103,21300000014113,[[Riksdagsmannagården i Axtorp]] (Axtorp 1:6),SE-N,Bondgård (3 byggnader),1830-talet,,,Kungsbacka,57.42095,12.29705,,,//sv.wikipedia.org/w/index.php?title=Lista_%C3%B6ver_byggnadsminnen_i_Hallands_l%C3%A4n&oldid=33805427,2016-06-08 06:51:47,Riksdagsmannagården_i_Axtorp,http://www.bebyggelseregistret.raa.se/bbr2/anlaggning/visaHistorik.raa?page=historik&visaHistorik=true&anlaggningId=21300000014113
104,21300000014062,[[Äskhults by]] (Äskhult 1:2 o 1:4 o 1:5 o 1:11; f.d. Äskhult 1:1 o 1:3),SE-N,"Bysamfällighet, bondgård (11 byggnader)",1700-talet,,,Kungsbacka,57.42713,12.28312,Askhult1.JPG,,//sv.wikipedia.org/w/index.php?title=Lista_%C3%B6ver_byggnadsminnen_i_Hallands_l%C3%A4n&oldid=33805427,2016-06-08 06:51:47,Äskhults_by,http://www.bebyggelseregistret.raa.se/bbr2/anlaggning/visaHistorik.raa?page=historik&visaHistorik=true&anlaggningId=21300000014062
105,21300000014059,[[Mårtagården]] (Iserås 6:1),SE-N,Kaptensgård (7 byggnader),1780,,,Kungsbacka,57.39437,11.99537,Mårtagården januari 2012.jpg,,//sv.wikipedia.org/w/index.php?title=Lista_%C3%B6ver_byggnadsminnen_i_Hallands_l%C3%A4n&oldid=33805427,2016-06-08 06:51:47,Mårtagården,http://www.bebyggelseregistret.raa.se/bbr2/anlaggning/visaHistorik.raa?page=historik&visaHistorik=true&anlaggningId=21300000014059
106,21300000014115,[[Knapegården]] (Råö 13:1),SE-N,Kaptensgård (7 byggnader),1750-talet,,,Kungsbacka,57.3912,11.95916,,,//sv.wikipedia.org/w/index.php?title=Lista_%C3%B6ver_byggnadsminnen_i_Hallands_l%C3%A4n&oldid=33805427,2016-06-08 06:51:47,Knapegården,http://www.bebyggelseregistret.raa.se/bbr2/anlaggning/visaHistorik.raa?page=historik&visaHistorik=true&anlaggningId=21300000014115
107,21300000014064,[[Nidingen|Nidingens fyrplats]] (Nidingen 1:1),SE-N,Fyrplats (12 byggnader),1945,,,Kungsbacka,57.30296,11.90194,Nidingen-1874.jpg,,//sv.wikipedia.org/w/index.php?title=Lista_%C3%B6ver_byggnadsminnen_i_Hallands_l%C3%A4n&oldid=33805427,2016-06-08 06:51:47,Nidingen,http://www.bebyggelseregistret.raa.se/bbr2/anlaggning/visaHistorik.raa?page=historik&visaHistorik=true&anlaggningId=21300000014064
108,21300000014081,"[[Stolpboden, Särö]] (Särö 1:502)",SE-N,"Herrgård,Säteri (1 byggnad)",1775,,,Kungsbacka,57.50567,11.93942,,,//sv.wikipedia.org/w/index.php?title=Lista_%C3%B6ver_byggnadsminnen_i_Hallands_l%C3%A4n&oldid=33805427,2016-06-08 06:51:47,"Stolpboden,_Särö",http://www.bebyggelseregistret.raa.se/bbr2/anlaggning/visaHistorik.raa?page=historik&visaHistorik=true&anlaggningId=21300000014081
109,21300000014011,[[Tjolöholms slott]] (Tjolöholm 1:1 m. fl.),SE-N,Slott (18 byggnader),1904,,[[Fjärås socken]],Kungsbacka,57.40255,12.10663,"Castle of Tjolöholm, seaside.jpg",,//sv.wikipedia.org/w/index.php?title=Lista_%C3%B6ver_byggnadsminnen_i_Hallands_l%C3%A4n&oldid=33805427,2016-06-08 06:51:47,Tjolöholms_slott,http://www.bebyggelseregistret.raa.se/bbr2/anlaggning/visaHistorik.raa?page=historik&visaHistorik=true&anlaggningId=21300000014011
110,21300000014086,[[Vallda metodistkapell]] (Lunna 11:5),SE-N,Frikyrka (1 byggnad),1872,,Vallda,Kungsbacka,57.46083,11.99845,,,//sv.wikipedia.org/w/index.php?title=Lista_%C3%B6ver_byggnadsminnen_i_Hallands_l%C3%A4n&oldid=33805427,2016-06-08 06:51:47,Vallda_metodistkapell,http://www.bebyggelseregistret.raa.se/bbr2/anlaggning/visaHistorik.raa?page=historik&visaHistorik=true&anlaggningId=21300000014086
111,21300000014080,[[Wea kaptensgård]] (Ekenäs 5:18),SE-N,Kaptensgård (3 byggnader),1700-talets slut,,,Kungsbacka,57.51562,11.9763,,,//sv.wikipedia.org/w/index.php?title=Lista_%C3%B6ver_byggnadsminnen_i_Hallands_l%C3%A4n&oldid=33805427,2016-06-08 06:51:47,Wea_kaptensgård,http://www.bebyggelseregistret.raa.se/bbr2/anlaggning/visaHistorik.raa?page=historik&visaHistorik=true&anlaggningId=21300000014080
112,21000001589320,[[Vippentorpet]] (Bygget 1:3),SE-N,Torp (1 byggnad),1778,,,Laholm,56.50471,13.24147,Vippentorpet 01.JPG,,//sv.wikipedia.org/w/index.php?title=Lista_%C3%B6ver_byggnadsminnen_i_Hallands_l%C3%A4n&oldid=33805427,2016-06-08 06:51:47,Vippentorpet,http://www.bebyggelseregistret.raa.se/bbr2/anlaggning/visaHistorik.raa?page=historik&visaHistorik=true&anlaggningId=21000001589320
113,21000001589340,[[Hausknechtska huset]] (Hästen 5),SE-N,Handelshus och handelskompani (1 byggnad),1799,,,Laholm,56.51208,13.04398,"Hausknechtska huset, Laholm, 1.jpg",,//sv.wikipedia.org/w/index.php?title=Lista_%C3%B6ver_byggnadsminnen_i_Hallands_l%C3%A4n&oldid=33805427,2016-06-08 06:51:47,Hausknechtska_huset,http://www.bebyggelseregistret.raa.se/bbr2/anlaggning/visaHistorik.raa?page=historik&visaHistorik=true&anlaggningId=21000001589340
114,21300000014117,[[Backstugan i Fladalt]] (Fladalt 1:44),SE-N,Backstuga (1 byggnad),1850,,[[Våxtorp]],Laholm,56.36606,13.14641,Backstugan i Fladalt.jpg,,//sv.wikipedia.org/w/index.php?title=Lista_%C3%B6ver_byggnadsminnen_i_Hallands_l%C3%A4n&oldid=33805427,2016-06-08 06:51:47,Backstugan_i_Fladalt,http://www.bebyggelseregistret.raa.se/bbr2/anlaggning/visaHistorik.raa?page=historik&visaHistorik=true&anlaggningId=21300000014117
115,21300000014046,[[Bollaltebygget]] (Bållalt 2:8; f.d. Bollalte 2:8),SE-N,Bondgård (5 byggnader),1700-talet,,[[Knäred]],Laholm,56.57657,13.30331,Bollaltebygget1_sweden.jpg,,//sv.wikipedia.org/w/index.php?title=Lista_%C3%B6ver_byggnadsminnen_i_Hallands_l%C3%A4n&oldid=33805427,2016-06-08 06:51:47,Bollaltebygget,http://www.bebyggelseregistret.raa.se/bbr2/anlaggning/visaHistorik.raa?page=historik&visaHistorik=true&anlaggningId=21300000014046
116,21300000014079,[[Skottorps slott]] (Skottorp 1:39),SE-N,Slott (5 byggnader),1660-talet,,[[Skummeslöv]],Laholm,56.43581,12.97898,Swedish castle Skottorp.jpg,,//sv.wikipedia.org/w/index.php?title=Lista_%C3%B6ver_byggnadsminnen_i_Hallands_l%C3%A4n&oldid=33805427,2016-06-08 06:51:47,Skottorps_slott,http://www.bebyggelseregistret.raa.se/bbr2/anlaggning/visaHistorik.raa?page=historik&visaHistorik=true&anlaggningId=21300000014079
117,21300000014104,[[Vallens slott]] (Vallen 1:23),SE-N,Slott (3 byggnader),1800-talets början,,[[Våxtorp]],Laholm,56.42945,13.12756,Swedish manor Vallen.jpg,,//sv.wikipedia.org/w/index.php?title=Lista_%C3%B6ver_byggnadsminnen_i_Hallands_l%C3%A4n&oldid=33805427,2016-06-08 06:51:47,Vallens_slott,http://www.bebyggelseregistret.raa.se/bbr2/anlaggning/visaHistorik.raa?page=historik&visaHistorik=true&anlaggningId=21300000014104
118,21300000027238,"[[Västralt]] (Västralt 2:10, Lottens)",SE-N,Bostadshus (3 byggnader),1909,,[[Knäred]],Laholm,56.51497,13.31044,,,//sv.wikipedia.org/w/index.php?title=Lista_%C3%B6ver_byggnadsminnen_i_Hallands_l%C3%A4n&oldid=33805427,2016-06-08 06:51:47,Västralt,http://www.bebyggelseregistret.raa.se/bbr2/anlaggning/visaHistorik.raa?page=historik&visaHistorik=true&anlaggningId=21300000027238
119,21000001589380,[[Hägareds gård]] (Hägared 1:1),SE-N,Bondgård (7 byggnader),1816,,,Varberg,57.02163,12.3932,,,//sv.wikipedia.org/w/index.php?title=Lista_%C3%B6ver_byggnadsminnen_i_Hallands_l%C3%A4n&oldid=33805427,2016-06-08 06:51:47,Hägareds_gård,http://www.bebyggelseregistret.raa.se/bbr2/anlaggning/visaHistorik.raa?page=historik&visaHistorik=true&anlaggningId=21000001589380
120,21300000014009,[[Långanskogen]] (Ästad 1:17),SE-N,Backstuga (1 byggnad),1700-talets slut,,,Varberg,57.06106,12.53786,,,//sv.wikipedia.org/w/index.php?title=Lista_%C3%B6ver_byggnadsminnen_i_Hallands_l%C3%A4n&oldid=33805427,2016-06-08 06:51:47,Långanskogen,http://www.bebyggelseregistret.raa.se/bbr2/anlaggning/visaHistorik.raa?page=historik&visaHistorik=true&anlaggningId=21300000014009
121,21300000014130,[[Båtsmanstorpet Hallmans]] (Olofstorp 7:4),SE-N,"Torp,Soldattorp, båtsmanstorp (1 byggnad)",1840-talet,,,Varberg,57.16677,12.40515,,,//sv.wikipedia.org/w/index.php?title=Lista_%C3%B6ver_byggnadsminnen_i_Hallands_l%C3%A4n&oldid=33805427,2016-06-08 06:51:47,Båtsmanstorpet_Hallmans,http://www.bebyggelseregistret.raa.se/bbr2/anlaggning/visaHistorik.raa?page=historik&visaHistorik=true&anlaggningId=21300000014130
122,21300000016135,[[Radiostationen i Grimeton|Grimetons radiostation och radioby]] (Grimeton 13:34 o 13:37-13:45),SE-N,Bostadshus (20 byggnader),1924,,,Varberg,57.1143,12.39923,Grimeton VLF transmitter 2004.jpg,Varberg Radio Station,//sv.wikipedia.org/w/index.php?title=Lista_%C3%B6ver_byggnadsminnen_i_Hallands_l%C3%A4n&oldid=33805427,2016-06-08 06:51:47,Radiostationen_i_Grimeton,http://www.bebyggelseregistret.raa.se/bbr2/anlaggning/visaHistorik.raa?page=historik&visaHistorik=true&anlaggningId=21300000016135
123,21300000014131,[[Grunnarps gård]] (Grunnarp 3:12),SE-N,Bondgård (4 byggnader),1700-talets slut,,,Varberg,57.1481,12.35612,,,//sv.wikipedia.org/w/index.php?title=Lista_%C3%B6ver_byggnadsminnen_i_Hallands_l%C3%A4n&oldid=33805427,2016-06-08 06:51:47,Grunnarps_gård,http://www.bebyggelseregistret.raa.se/bbr2/anlaggning/visaHistorik.raa?page=historik&visaHistorik=true&anlaggningId=21300000014131
124,21300000014134,[[Åkrabergs ladugård]] (Värö-Åkraberg 1:12),SE-N,Bondgård (1 byggnad),1730-talet,,,Varberg,57.25889,12.23186,Akraberg2.jpg,,//sv.wikipedia.org/w/index.php?title=Lista_%C3%B6ver_byggnadsminnen_i_Hallands_l%C3%A4n&oldid=33805427,2016-06-08 06:51:47,Åkrabergs_ladugård,http://www.bebyggelseregistret.raa.se/bbr2/anlaggning/visaHistorik.raa?page=historik&visaHistorik=true&anlaggningId=21300000014134
125,21300000014048,[[Lindhovs kungsgård]] (Lindhov 1:1),SE-N,Kungsgård (7 byggnader),1838,,,Varberg,57.14223,12.26418,Lindhovs kungsgård.JPG,,//sv.wikipedia.org/w/index.php?title=Lista_%C3%B6ver_byggnadsminnen_i_Hallands_l%C3%A4n&oldid=33805427,2016-06-08 06:51:47,Lindhovs_kungsgård,http://www.bebyggelseregistret.raa.se/bbr2/anlaggning/visaHistorik.raa?page=historik&visaHistorik=true&anlaggningId=21300000014048
126,21300000014091,[[Societetshuset]] (Getakärr 3:60),SE-N,Societetshus (1 byggnad),1886,,,Varberg,57.1067,12.24296,"Societetshuset, Varberg.jpg",,//sv.wikipedia.org/w/index.php?title=Lista_%C3%B6ver_byggnadsminnen_i_Hallands_l%C3%A4n&oldid=33805427,2016-06-08 06:51:47,Societetshuset,http://www.bebyggelseregistret.raa.se/bbr2/anlaggning/visaHistorik.raa?page=historik&visaHistorik=true&anlaggningId=21300000014091
127,21300000014135,[[Sunvära kvarn]] (Sunnvära 11:9),SE-N,Kvarn (1 byggnad),1899,,,Varberg,57.24602,12.21474,,,//sv.wikipedia.org/w/index.php?title=Lista_%C3%B6ver_byggnadsminnen_i_Hallands_l%C3%A4n&oldid=33805427,2016-06-08 06:51:47,Sunvära_kvarn,http://www.bebyggelseregistret.raa.se/bbr2/anlaggning/visaHistorik.raa?page=historik&visaHistorik=true&anlaggningId=21300000014135
128,21300000014133,[[Varbergs fästning]] (Getakärr 3:62),SE-N,Riksfäste (12 byggnader),1287,,,Varberg,57.10641,12.23998,Varbergs fästning från söder.jpg,,//sv.wikipedia.org/w/index.php?title=Lista_%C3%B6ver_byggnadsminnen_i_Hallands_l%C3%A4n&oldid=33805427,2016-06-08 06:51:47,Varbergs_fästning,http://www.bebyggelseregistret.raa.se/bbr2/anlaggning/visaHistorik.raa?page=historik&visaHistorik=true&anlaggningId=21300000014133
129,21300000014106,[[Åsklosters kungsgård]] (Åskloster 1:1),SE-N,Kungsgård (3 byggnader),1807,,,Varberg,57.22525,12.22004,Åsklosters kungsgård.jpg,,//sv.wikipedia.org/w/index.php?title=Lista_%C3%B6ver_byggnadsminnen_i_Hallands_l%C3%A4n&oldid=33805427,2016-06-08 06:51:47,Åsklosters_kungsgård,http://www.bebyggelseregistret.raa.se/bbr2/anlaggning/visaHistorik.raa?page=historik&visaHistorik=true&anlaggningId=21300000014106
130,21300000014384,"[[Ekeby, Bjuvs kommun#Ekeby badhus|Ekeby badhus]] (Skromberga 12:2)",SE-M,"Badhus, simhall (1 byggnad)",1920,,,Bjuv,55.9983,12.97794,Ekeby badhus.jpg,Ekeby badhus,//sv.wikipedia.org/w/index.php?title=Lista_%C3%B6ver_byggnadsminnen_i_Sk%C3%A5ne_l%C3%A4n&oldid=33773790,2016-06-08 06:51:48,"Ekeby,_Bjuvs_kommun#Ekeby_badhus",http://www.bebyggelseregistret.raa.se/bbr2/anlaggning/visaHistorik.raa?page=historik&visaHistorik=true&anlaggningId=21300000014384
131,21300000014882,[[Norra Vrams prästgård]] (Norra Vram 32:4),SE-M,"Boställe, prästgård (3 byggnader)",1816,,,Bjuv,56.08944,12.9756,Norra Vrams prästgård.jpg,Norra Vrams prästgård,//sv.wikipedia.org/w/index.php?title=Lista_%C3%B6ver_byggnadsminnen_i_Sk%C3%A5ne_l%C3%A4n&oldid=33773790,2016-06-08 06:51:48,Norra_Vrams_prästgård,http://www.bebyggelseregistret.raa.se/bbr2/anlaggning/visaHistorik.raa?page=historik&visaHistorik=true&anlaggningId=21300000014882
132,21300000014884,[[Vrams Gunnarstorps slott]] (Vrams Gunnarstorp 2:1),SE-M,"Säteri, slott (6 byggnader)",1500-talet,,,Bjuv,56.10404,12.96835,Swedish castle Vrams Gunnarstorp.jpg,Vrams Gunnarstorps slott,//sv.wikipedia.org/w/index.php?title=Lista_%C3%B6ver_byggnadsminnen_i_Sk%C3%A5ne_l%C3%A4n&oldid=33773790,2016-06-08 06:51:48,Vrams_Gunnarstorps_slott,http://www.bebyggelseregistret.raa.se/bbr2/anlaggning/visaHistorik.raa?page=historik&visaHistorik=true&anlaggningId=21300000014884
133,21300000014372,[[Burlövs prästgård]] (Burlöv 7:1),SE-M,"Boställe, prästgård (1 byggnad)",1774,,[[Burlöv]],Burlöv,55.63694,13.11239,Burlövs prästgård.jpg,Burlövs prästgård,//sv.wikipedia.org/w/index.php?title=Lista_%C3%B6ver_byggnadsminnen_i_Sk%C3%A5ne_l%C3%A4n&oldid=33773790,2016-06-08 06:51:48,Burlövs_prästgård,http://www.bebyggelseregistret.raa.se/bbr2/anlaggning/visaHistorik.raa?page=historik&visaHistorik=true&anlaggningId=21300000014372
134,21300000014374,[[Gymnastikhuset på Hvilan]] (Åkarp 29:1),SE-M,"Skola, folkhögskola (1 byggnad)",1884,,[[Åkarp]],Burlöv,55.65113,13.11568,Hvilans gymnastiksal.jpg,Gymnastikhuset på Hvilan,//sv.wikipedia.org/w/index.php?title=Lista_%C3%B6ver_byggnadsminnen_i_Sk%C3%A5ne_l%C3%A4n&oldid=33773790,2016-06-08 06:51:48,Gymnastikhuset_på_Hvilan,http://www.bebyggelseregistret.raa.se/bbr2/anlaggning/visaHistorik.raa?page=historik&visaHistorik=true&anlaggningId=21300000014374
135,21300000014381,[[Kronetorps mölla]] (Arlöv 7:16),SE-M,Kvarn (2 byggnader),1841,,[[Arlöv]],Burlöv,55.6316,13.09105,Kronetorps mölla 2010-04-18.JPG,Kronetorps mölla,//sv.wikipedia.org/w/index.php?title=Lista_%C3%B6ver_byggnadsminnen_i_Sk%C3%A5ne_l%C3%A4n&oldid=33773790,2016-06-08 06:51:48,Kronetorps_mölla,http://www.bebyggelseregistret.raa.se/bbr2/anlaggning/visaHistorik.raa?page=historik&visaHistorik=true&anlaggningId=21300000014381
136,21000001648601,[[Torekovs varmbadhus]] (Torekov 98:1),SE-M,"Badhus, varmbadhus (1 byggnad)",1876,,[[Torekov]],Båstad,56.42698,12.62342,Torekovs Varmbadhus.jpg,Torekovs varmbadhus,//sv.wikipedia.org/w/index.php?title=Lista_%C3%B6ver_byggnadsminnen_i_Sk%C3%A5ne_l%C3%A4n&oldid=33773790,2016-06-08 06:51:48,Torekovs_varmbadhus,http://www.bebyggelseregistret.raa.se/bbr2/anlaggning/visaHistorik.raa?page=historik&visaHistorik=true&anlaggningId=21000001648601
137,21300000015040,[[Villa Sommarlek]] (Hemmeslöv 44:44),SE-M,"Fritidshus, sommarvilla (1 byggnad)",1936,,[[Hemmeslövsstrand]],Båstad,56.43599,12.88186,Villa Sommarlek i Hemmeslövsstrand.jpg,,//sv.wikipedia.org/w/index.php?title=Lista_%C3%B6ver_byggnadsminnen_i_Sk%C3%A5ne_l%C3%A4n&oldid=33773790,2016-06-08 06:51:48,Villa_Sommarlek,http://www.bebyggelseregistret.raa.se/bbr2/anlaggning/visaHistorik.raa?page=historik&visaHistorik=true&anlaggningId=21300000015040
138,21300000014977,[[Ågegården]] (Boarp 2:22),SE-M,Bondgård (4 byggnader),1700-talet,,"[[Boarp, Västra Karups socken|Boarp]]",Båstad,56.43275,12.79553,Ågegården i Boarp.jpg,,//sv.wikipedia.org/w/index.php?title=Lista_%C3%B6ver_byggnadsminnen_i_Sk%C3%A5ne_l%C3%A4n&oldid=33773790,2016-06-08 06:51:48,Ågegården,http://www.bebyggelseregistret.raa.se/bbr2/anlaggning/visaHistorik.raa?page=historik&visaHistorik=true&anlaggningId=21300000014977
139,21320000029707,[[Klintahuset]] (Slättaröd 11:7),SE-M,Bostadshus,1800-talets första hälft,,[[Slättaröd]],Båstad,56.39017,12.65355,,,//sv.wikipedia.org/w/index.php?title=Lista_%C3%B6ver_byggnadsminnen_i_Sk%C3%A5ne_l%C3%A4n&oldid=33773790,2016-06-08 06:51:48,Klintahuset,http://www.bebyggelseregistret.raa.se/bbr2/anlaggning/visaHistorik.raa?page=historik&visaHistorik=true&anlaggningId=21320000029707
140,21320000029706,[[Skjulet]] (Torekov 98:1),SE-M,Vaktstuga,1800-talets första hälft,,[[Torekov]],Båstad,56.42638,12.62367,"Skjulet, Torekov.jpg",,//sv.wikipedia.org/w/index.php?title=Lista_%C3%B6ver_byggnadsminnen_i_Sk%C3%A5ne_l%C3%A4n&oldid=33773790,2016-06-08 06:51:48,Skjulet,http://www.bebyggelseregistret.raa.se/bbr2/anlaggning/visaHistorik.raa?page=historik&visaHistorik=true&anlaggningId=21320000029706
141,21300000014959,[[Bålamöllan]] (Bålamöllan 1:3),SE-M,"Kvarn, industrikvarn (3 byggnader)",1600-talet,,[[Stockamöllan]],Eslöv,55.94244,13.38059,"Bålamöllan, Eslövs kommun.jpg",Bålamöllan,//sv.wikipedia.org/w/index.php?title=Lista_%C3%B6ver_byggnadsminnen_i_Sk%C3%A5ne_l%C3%A4n&oldid=33773790,2016-06-08 06:51:48,Bålamöllan,http://www.bebyggelseregistret.raa.se/bbr2/anlaggning/visaHistorik.raa?page=historik&visaHistorik=true&anlaggningId=21300000014959
142,21300000014393,"[[Medborgarhuset, Eslöv|Eslövs medborgarhus]] (Kopparslagaren 1)",SE-M,"Kulturhus, medborgarhus (1 byggnad)",1958,,[[Eslöv]],Eslöv,55.83462,13.3028,Medborgarhuset i Eslöv-1.jpg,"Medborgarhuset, Eslöv",//sv.wikipedia.org/w/index.php?title=Lista_%C3%B6ver_byggnadsminnen_i_Sk%C3%A5ne_l%C3%A4n&oldid=33773790,2016-06-08 06:51:48,"Medborgarhuset,_Eslöv",http://www.bebyggelseregistret.raa.se/bbr2/anlaggning/visaHistorik.raa?page=historik&visaHistorik=true&anlaggningId=21300000014393
143,21300000014387,"[[Eslövs Järnvägsstation|Eslövs station]] (Eslöv 54:1, 54:3)",SE-M,Järnvägsstation (7 byggnader),1865,,[[Eslöv]],Eslöv,55.83774,13.30517,Eslövs station-09.jpg,Eslövs station,//sv.wikipedia.org/w/index.php?title=Lista_%C3%B6ver_byggnadsminnen_i_Sk%C3%A5ne_l%C3%A4n&oldid=33773790,2016-06-08 06:51:48,Eslövs_Järnvägsstation,http://www.bebyggelseregistret.raa.se/bbr2/anlaggning/visaHistorik.raa?page=historik&visaHistorik=true&anlaggningId=21300000014387
144,21300000014438,[[Harlösa donationshus]] (Harlösa 1:13; f.d. 1:4),SE-M,"Äldreboende, ålderdomshem (1 byggnad)",1824,,[[Harlösa]],Eslöv,55.7239,13.52794,Harlösa donationshus.jpg,Harlösa donationshus,//sv.wikipedia.org/w/index.php?title=Lista_%C3%B6ver_byggnadsminnen_i_Sk%C3%A5ne_l%C3%A4n&oldid=33773790,2016-06-08 06:51:48,Harlösa_donationshus,http://www.bebyggelseregistret.raa.se/bbr2/anlaggning/visaHistorik.raa?page=historik&visaHistorik=true&anlaggningId=21300000014438
145,21300000014919,[[Skarhults slott]] (Skarhult 13:36; f.d. 13:30),SE-M,Slott (4 byggnader),1500-talets början,,[[Skarhult]],Eslöv,55.80411,13.37257,Skarhults slott.jpg,Skarhults slott,//sv.wikipedia.org/w/index.php?title=Lista_%C3%B6ver_byggnadsminnen_i_Sk%C3%A5ne_l%C3%A4n&oldid=33773790,2016-06-08 06:51:48,Skarhults_slott,http://www.bebyggelseregistret.raa.se/bbr2/anlaggning/visaHistorik.raa?page=historik&visaHistorik=true&anlaggningId=21300000014919
146,21300000014929,[[Trollenäs slott]] (Trollenäs 2:20),SE-M,Slott (2 byggnader),1500-talets början,,[[Trollenäs]],Eslöv,55.86556,13.24506,Trollenäs slott.jpg,Trollenäs slott,//sv.wikipedia.org/w/index.php?title=Lista_%C3%B6ver_byggnadsminnen_i_Sk%C3%A5ne_l%C3%A4n&oldid=33773790,2016-06-08 06:51:48,Trollenäs_slott,http://www.bebyggelseregistret.raa.se/bbr2/anlaggning/visaHistorik.raa?page=historik&visaHistorik=true&anlaggningId=21300000014929
147,21300000014979,[[Västra Sallerups prästgård]] (Jep Klockare 7; f.d. 4 och 5),SE-M,"Boställe, prästgård (2 byggnader)",1868,,[[Västra Sallerup]],Eslöv,55.82973,13.27609,Prastgarden.jpg,Västra Sallerups prästgård,//sv.wikipedia.org/w/index.php?title=Lista_%C3%B6ver_byggnadsminnen_i_Sk%C3%A5ne_l%C3%A4n&oldid=33773790,2016-06-08 06:51:48,Västra_Sallerups_prästgård,http://www.bebyggelseregistret.raa.se/bbr2/anlaggning/visaHistorik.raa?page=historik&visaHistorik=true&anlaggningId=21300000014979
148,21300000014482,[[Gamla stadsmuseet]] (Minerva 19),SE-M,"Skola, läroverk, katedralskola (3 byggnader)",1845 (huvudbyggnad och gymnastiksal)<br />1915,[[Carl Georg Brunius]] (1845)<br />[[Torsten Stubelius]] och [[Sigurd Lewerentz]] (1915),[[Helsingborg]],Helsingborg,56.04526,12.69959,Gamla stadsmuseet (Minerva 19) 2012-09-15 14-26-13.jpg,Gamla stadsmuseet,//sv.wikipedia.org/w/index.php?title=Lista_%C3%B6ver_byggnadsminnen_i_Sk%C3%A5ne_l%C3%A4n&oldid=33773790,2016-06-08 06:51:48,Gamla_stadsmuseet,http://www.bebyggelseregistret.raa.se/bbr2/anlaggning/visaHistorik.raa?page=historik&visaHistorik=true&anlaggningId=21300000014482
149,21300000014450,[[Apoteket Kärnan]] (Kärnan Södra 8),SE-M,"Apotek, borgargård (1 byggnad)",1813 (huvudbyggnad)<br />1882 (flygelbyggnad),okänd (1813)<br />[[Mauritz Frohm]] (1882),[[Helsingborg]],Helsingborg,56.04661,12.69733,Apoteket Kärnan.jpg,Apoteket Kärnan,//sv.wikipedia.org/w/index.php?title=Lista_%C3%B6ver_byggnadsminnen_i_Sk%C3%A5ne_l%C3%A4n&oldid=33773790,2016-06-08 06:51:48,Apoteket_Kärnan,http://www.bebyggelseregistret.raa.se/bbr2/anlaggning/visaHistorik.raa?page=historik&visaHistorik=true&anlaggningId=21300000014450
150,21300000014453,[[Konsul Perssons villa|Essenska villan]] (Villan 1),SE-M,"Bostadshus, palats och stadsvilla (1 byggnad)",1847,[[Gustav Friedrich Hetsch]],[[Helsingborg]],Helsingborg,56.04371,12.70153,Konsul Perssons villa.jpg,Konsul Perssons villa,//sv.wikipedia.org/w/index.php?title=Lista_%C3%B6ver_byggnadsminnen_i_Sk%C3%A5ne_l%C3%A4n&oldid=33773790,2016-06-08 06:51:48,Konsul_Perssons_villa,http://www.bebyggelseregistret.raa.se/bbr2/anlaggning/visaHistorik.raa?page=historik&visaHistorik=true&anlaggningId=21300000014453
151,21300000014463,"[[Gamlegård, Helsingborg|Gamlegård]] (Magnus Stenbock 20)",SE-M,Bostadshus och flygelbyggnad (2 byggnader),1700-talet,okänd,[[Helsingborg]],Helsingborg,56.047778,12.694694,Helsingborg Gamlegård.jpg,"Gamlegård, Helsingborg",//sv.wikipedia.org/w/index.php?title=Lista_%C3%B6ver_byggnadsminnen_i_Sk%C3%A5ne_l%C3%A4n&oldid=33773790,2016-06-08 06:51:48,"Gamlegård,_Helsingborg",http://www.bebyggelseregistret.raa.se/bbr2/anlaggning/visaHistorik.raa?page=historik&visaHistorik=true&anlaggningId=21300000014463
152,21300000014455,[[Helsingborgs konserthus]] (Rudolf Tornérhjelm 1),SE-M,Konserthus (1 byggnad),1932,[[Sven Markelius]],[[Helsingborg]],Helsingborg,56.04958,12.68887,Helsingborgs konserthus entre.jpg,Helsingborgs konserthus,//sv.wikipedia.org/w/index.php?title=Lista_%C3%B6ver_byggnadsminnen_i_Sk%C3%A5ne_l%C3%A4n&oldid=33773790,2016-06-08 06:51:48,Helsingborgs_konserthus,http://www.bebyggelseregistret.raa.se/bbr2/anlaggning/visaHistorik.raa?page=historik&visaHistorik=true&anlaggningId=21300000014455
153,21300000015053,[[Hjälmshults kungsgård]] (Hjälmshult 1:2),SE-M,"Boställe, officersboställe (10 byggnader)",1743,okänd,[[Allerum]],Helsingborg,56.12732,12.68896,Hjälmshults kungsgård.jpg,,//sv.wikipedia.org/w/index.php?title=Lista_%C3%B6ver_byggnadsminnen_i_Sk%C3%A5ne_l%C3%A4n&oldid=33773790,2016-06-08 06:51:48,Hjälmshults_kungsgård,http://www.bebyggelseregistret.raa.se/bbr2/anlaggning/visaHistorik.raa?page=historik&visaHistorik=true&anlaggningId=21300000015053
154,21300000014471,[[Jacob Hansens hus]] (Sockerbruket 2),SE-M,Borgargård (3 byggnader),1641,okänd,[[Helsingborg]],Helsingborg,56.04848,12.69333,Helsingborg Jacob Hansens hus1.jpg,Jacob Hansens hus,//sv.wikipedia.org/w/index.php?title=Lista_%C3%B6ver_byggnadsminnen_i_Sk%C3%A5ne_l%C3%A4n&oldid=33773790,2016-06-08 06:51:48,Jacob_Hansens_hus,http://www.bebyggelseregistret.raa.se/bbr2/anlaggning/visaHistorik.raa?page=historik&visaHistorik=true&anlaggningId=21300000014471
155,21300000014517,[[Jöns Jonsgården]] (Signestorp 5:21),SE-M,Bondgård (7 byggnader),1805–1878,okänd,[[Kattarp]],Helsingborg,56.13759,12.77978,"Jöns Jonsgården 2, Kattarp.jpg",Jöns Jonsgården,//sv.wikipedia.org/w/index.php?title=Lista_%C3%B6ver_byggnadsminnen_i_Sk%C3%A5ne_l%C3%A4n&oldid=33773790,2016-06-08 06:51:48,Jöns_Jonsgården,http://www.bebyggelseregistret.raa.se/bbr2/anlaggning/visaHistorik.raa?page=historik&visaHistorik=true&anlaggningId=21300000014517
156,21300000014313,[[Kulla Gunnarstorps mölla]] (Kulla Gunnarstorp 1:21),SE-M,"Kvarn, husbehovskvarn (2 byggnader)",1800-1809,okänd,[[Kulla Gunnarstorp]],Helsingborg,56.10363,12.63797,Kulla-Gunnarstorps mölla.jpg,Kulla Gunnarstorps kvarn,//sv.wikipedia.org/w/index.php?title=Lista_%C3%B6ver_byggnadsminnen_i_Sk%C3%A5ne_l%C3%A4n&oldid=33773790,2016-06-08 06:51:48,Kulla_Gunnarstorps_mölla,http://www.bebyggelseregistret.raa.se/bbr2/anlaggning/visaHistorik.raa?page=historik&visaHistorik=true&anlaggningId=21300000014313
157,21300000014472,[[Kärnan]] (Gamla Staden 8:2),SE-M,"Befästning, borg, citadell (1 byggnad)",1314,okänd,[[Helsingborg]],Helsingborg,56.04828,12.6975,Kärnan124.JPG,Kärnan,//sv.wikipedia.org/w/index.php?title=Lista_%C3%B6ver_byggnadsminnen_i_Sk%C3%A5ne_l%C3%A4n&oldid=33773790,2016-06-08 06:51:48,Kärnan,http://www.bebyggelseregistret.raa.se/bbr2/anlaggning/visaHistorik.raa?page=historik&visaHistorik=true&anlaggningId=21300000014472
158,21300000014475,[[Ramlösa hälsobrunn]] (Ramlösa 2:1),SE-M,Hälsobrunn (13 byggnader),1800-talets början,,[[Ramlösa (stadsdel)|Ramlösa]],Helsingborg,56.02208,12.74678,Ramlösa Brunnspaviljongen.jpg,Ramlösa hälsobrunn,//sv.wikipedia.org/w/index.php?title=Lista_%C3%B6ver_byggnadsminnen_i_Sk%C3%A5ne_l%C3%A4n&oldid=33773790,2016-06-08 06:51:48,Ramlösa_hälsobrunn,http://www.bebyggelseregistret.raa.se/bbr2/anlaggning/visaHistorik.raa?page=historik&visaHistorik=true&anlaggningId=21300000014475
159,21300000018013,"[[Rosendals slott, Helsingborg|Rosendals slott]] (Rosendal 2:1)",SE-M,Slott (20 byggnader),1600-talet (Billehuset)<br />1615 (Slottet),okänd,,Helsingborg,56.08962,12.83087,"Swedish castle Rosendal, Helsingborg.jpg","Rosendals slott, Helsingborg",//sv.wikipedia.org/w/index.php?title=Lista_%C3%B6ver_byggnadsminnen_i_Sk%C3%A5ne_l%C3%A4n&oldid=33773790,2016-06-08 06:51:48,"Rosendals_slott,_Helsingborg",http://www.bebyggelseregistret.raa.se/bbr2/anlaggning/visaHistorik.raa?page=historik&visaHistorik=true&anlaggningId=21300000018013
160,21300000014480,[[Helsingborgs rådhus]] (Rådhuset 3; f.d. Rådhuset 2),SE-M,Rådhus (1 byggnad),1897,[[Alfred Hellerström]],[[Helsingborg]],Helsingborg,56.0467,12.69295,Helsingborg town hall.jpg,Helsingborgs rådhus,//sv.wikipedia.org/w/index.php?title=Lista_%C3%B6ver_byggnadsminnen_i_Sk%C3%A5ne_l%C3%A4n&oldid=33773790,2016-06-08 06:51:48,Helsingborgs_rådhus,http://www.bebyggelseregistret.raa.se/bbr2/anlaggning/visaHistorik.raa?page=historik&visaHistorik=true&anlaggningId=21300000014480
161,21300000014486,[[Tornérhjelmska huset]] (Kullen Östra 37),SE-M,Borgargård (1 byggnad),1804,okänd,[[Helsingborg]],Helsingborg,56.04988,12.69233,Tornerhjelmska huset.jpg,Tornérhjelmska huset,//sv.wikipedia.org/w/index.php?title=Lista_%C3%B6ver_byggnadsminnen_i_Sk%C3%A5ne_l%C3%A4n&oldid=33773790,2016-06-08 06:51:48,Tornérhjelmska_huset,http://www.bebyggelseregistret.raa.se/bbr2/anlaggning/visaHistorik.raa?page=historik&visaHistorik=true&anlaggningId=21300000014486
162,21300000014488,[[Vikingsberg]] (Vikingsberg 1; f.d. Gamla Staden 6:11),SE-M,"Bostadshus, palats och stadsvilla (1 byggnad)",1875,[[Mauritz Frohm]],[[Helsingborg]],Helsingborg,56.05222,12.69078,Vikingsberg 1.jpg,Vikingsberg,//sv.wikipedia.org/w/index.php?title=Lista_%C3%B6ver_byggnadsminnen_i_Sk%C3%A5ne_l%C3%A4n&oldid=33773790,2016-06-08 06:51:48,Vikingsberg,http://www.bebyggelseregistret.raa.se/bbr2/anlaggning/visaHistorik.raa?page=historik&visaHistorik=true&anlaggningId=21300000014488
163,21300000014965,[[Gundrastorp-Ekholmens dammverk]] (Ekholmen 1:31),SE-M,"Kvarn, industrikvarn (2 byggnader)",1870-talet,,,Hässleholm,56.35451,13.70119,Gundrastorp-Ekholmens kvarnverk.jpg,Gundrastorp-Ekholmens dammverk,//sv.wikipedia.org/w/index.php?title=Lista_%C3%B6ver_byggnadsminnen_i_Sk%C3%A5ne_l%C3%A4n&oldid=33773790,2016-06-08 06:51:48,Gundrastorp-Ekholmens_dammverk,http://www.bebyggelseregistret.raa.se/bbr2/anlaggning/visaHistorik.raa?page=historik&visaHistorik=true&anlaggningId=21300000014965
164,21300000015051,[[Hovdala slott]] (Hovdala 1:3; f.d. 1:2),SE-M,Slott (9 byggnader),1511,,,Hässleholm,56.10402,13.71354,Hovdala 7.JPG,Hovdala slott,//sv.wikipedia.org/w/index.php?title=Lista_%C3%B6ver_byggnadsminnen_i_Sk%C3%A5ne_l%C3%A4n&oldid=33773790,2016-06-08 06:51:48,Hovdala_slott,http://www.bebyggelseregistret.raa.se/bbr2/anlaggning/visaHistorik.raa?page=historik&visaHistorik=true&anlaggningId=21300000015051
165,21300000023791,[[Norra Mellby skol- och fattighus]] (Norra Mellby 2:2),SE-M,"Skola, fattighus (2 byggnader)",1816,,[[Norra Mellby]],Hässleholm,56.04838,13.72016,"Norra Mellby skola och fattighus 1, Norra Mellby 2 2.jpg",Norra Mellby skol- och fattighus,//sv.wikipedia.org/w/index.php?title=Lista_%C3%B6ver_byggnadsminnen_i_Sk%C3%A5ne_l%C3%A4n&oldid=33773790,2016-06-08 06:51:48,Norra_Mellby_skol-_och_fattighus,http://www.bebyggelseregistret.raa.se/bbr2/anlaggning/visaHistorik.raa?page=historik&visaHistorik=true&anlaggningId=21300000023791
166,21000001647301,[[Fjälastorps småskola]] (Fjälastorp 9:8),SE-M,Skola (2 byggnader),1880,,,Höganäs,56.25708,12.60445,Fjälastorps småskola.jpg,,//sv.wikipedia.org/w/index.php?title=Lista_%C3%B6ver_byggnadsminnen_i_Sk%C3%A5ne_l%C3%A4n&oldid=33773790,2016-06-08 06:51:48,Fjälastorps_småskola,http://www.bebyggelseregistret.raa.se/bbr2/anlaggning/visaHistorik.raa?page=historik&visaHistorik=true&anlaggningId=21000001647301
167,21300000014972,[[Gunnestorps mölla]] (Ornakärr 2:21),SE-M,"Kvarn, husbehovskvarn (inga registrerade byggnader)",1870,,"[[Ornakärr]], Mjöhultsvägen, nära Gunnestorpsvägen 1",Höganäs,56.19169,12.67437,Gunnestorps mölla 1.jpg,,//sv.wikipedia.org/w/index.php?title=Lista_%C3%B6ver_byggnadsminnen_i_Sk%C3%A5ne_l%C3%A4n&oldid=33773790,2016-06-08 06:51:48,Gunnestorps_mölla,http://www.bebyggelseregistret.raa.se/bbr2/anlaggning/visaHistorik.raa?page=historik&visaHistorik=true&anlaggningId=21300000014972
168,21300000014350,[[Himmelstorp]] (Krapperup 19:1),SE-M,Bondgård (4 byggnader),1790-talet,,[[Krapperup]],Höganäs,56.28034,12.54347,Himmelstorp.JPG,,//sv.wikipedia.org/w/index.php?title=Lista_%C3%B6ver_byggnadsminnen_i_Sk%C3%A5ne_l%C3%A4n&oldid=33773790,2016-06-08 06:51:48,Himmelstorp,http://www.bebyggelseregistret.raa.se/bbr2/anlaggning/visaHistorik.raa?page=historik&visaHistorik=true&anlaggningId=21300000014350
169,21300000016010,[[Hustoftagården]] (Hustofta 3:6),SE-M,Bondgård (6 byggnader),1884,,[[Hustofta]],Höganäs,56.19157,12.60706,Hustoftagården.jpg,,//sv.wikipedia.org/w/index.php?title=Lista_%C3%B6ver_byggnadsminnen_i_Sk%C3%A5ne_l%C3%A4n&oldid=33773790,2016-06-08 06:51:48,Hustoftagården,http://www.bebyggelseregistret.raa.se/bbr2/anlaggning/visaHistorik.raa?page=historik&visaHistorik=true&anlaggningId=21300000016010
170,21300000014354,[[Krapperups slott]] (Krapperup 19:1),SE-M,Slott (10 byggnader),1570-talet,,[[Krapperup]],Höganäs,56.26198,12.53135,Krapperup slott Bån.JPG,,//sv.wikipedia.org/w/index.php?title=Lista_%C3%B6ver_byggnadsminnen_i_Sk%C3%A5ne_l%C3%A4n&oldid=33773790,2016-06-08 06:51:48,Krapperups_slott,http://www.bebyggelseregistret.raa.se/bbr2/anlaggning/visaHistorik.raa?page=historik&visaHistorik=true&anlaggningId=21300000014354
171,21300000014966,[[Paul Jönska gården]] (Loggen 1; f.d. Viken 10:2-3),SE-M,Boställe (2 byggnader),1878,,,Höganäs,56.14424,12.57295,Paul Jönska gården i Viken.jpg,,//sv.wikipedia.org/w/index.php?title=Lista_%C3%B6ver_byggnadsminnen_i_Sk%C3%A5ne_l%C3%A4n&oldid=33773790,2016-06-08 06:51:48,Paul_Jönska_gården,http://www.bebyggelseregistret.raa.se/bbr2/anlaggning/visaHistorik.raa?page=historik&visaHistorik=true&anlaggningId=21300000014966
172,21300000014326,[[Villa Italienborg]] (Mölle 12:67),SE-M,Bostadshus (1 byggnad),1910,,[[Mölle]],Höganäs,56.28721,12.49042,"Italienborg, Mölle.jpg",,//sv.wikipedia.org/w/index.php?title=Lista_%C3%B6ver_byggnadsminnen_i_Sk%C3%A5ne_l%C3%A4n&oldid=33773790,2016-06-08 06:51:48,Villa_Italienborg,http://www.bebyggelseregistret.raa.se/bbr2/anlaggning/visaHistorik.raa?page=historik&visaHistorik=true&anlaggningId=21300000014326
173,21000001647384,[[Ulla Molins trädgård]] (Spättan 1),SE-M,Trädgård (2 byggnader),1978,,,Höganäs,56.19424,12.55856,Ulla Molin garden Hoganas.JPG,,//sv.wikipedia.org/w/index.php?title=Lista_%C3%B6ver_byggnadsminnen_i_Sk%C3%A5ne_l%C3%A4n&oldid=33773790,2016-06-08 06:51:48,Ulla_Molins_trädgård,http://www.bebyggelseregistret.raa.se/bbr2/anlaggning/visaHistorik.raa?page=historik&visaHistorik=true&anlaggningId=21000001647384
174,21300000014342,[[Bosjökloster]] (del av Bosjökloster 1:593 och 1:740),SE-M,"Slott, kloster (11 byggnader)","1100-talet, med flera ombyggnader senare",,,Höör,55.87726,13.51956,Bosjo monastery in Skane Sweden4.jpg,,//sv.wikipedia.org/w/index.php?title=Lista_%C3%B6ver_byggnadsminnen_i_Sk%C3%A5ne_l%C3%A4n&oldid=33773790,2016-06-08 06:51:48,Bosjökloster,http://www.bebyggelseregistret.raa.se/bbr2/anlaggning/visaHistorik.raa?page=historik&visaHistorik=true&anlaggningId=21300000014342
175,21300000014893,[[Herrevadskloster|Herrevadskloster kungsgård]] (Herrevadskloster 2:66; f.d. Herrevadskloster 2:1),SE-M,"Kungsgård, kloster (12 byggnader)",1100-talet,,,Klippan,56.08836,13.23391,Swedish castle Herrevadskloster.jpg,,//sv.wikipedia.org/w/index.php?title=Lista_%C3%B6ver_byggnadsminnen_i_Sk%C3%A5ne_l%C3%A4n&oldid=33773790,2016-06-08 06:51:48,Herrevadskloster,http://www.bebyggelseregistret.raa.se/bbr2/anlaggning/visaHistorik.raa?page=historik&visaHistorik=true&anlaggningId=21300000014893
176,21300000015139,[[F5]] (Bonnarp 43:4 och Sjöleden 1:5),SE-M,"Mötes-, exercis- och lägerplats (40 byggnader)",1872,,[[Ljungbyhed]],Klippan,56.07446,13.22688,Ljungbyheds läger 2.jpg,,//sv.wikipedia.org/w/index.php?title=Lista_%C3%B6ver_byggnadsminnen_i_Sk%C3%A5ne_l%C3%A4n&oldid=33773790,2016-06-08 06:51:48,F5,http://www.bebyggelseregistret.raa.se/bbr2/anlaggning/visaHistorik.raa?page=historik&visaHistorik=true&anlaggningId=21300000015139
177,21320000019178,[[Blåherremölla]] vattenkvarn (Blåherremölla 1:2),SE-M,"Kvarn,Bostadshus (5 byggnader)",1700-talet,,,Kristianstad,55.7634,14.15629,Blåherremölla.jpg,,//sv.wikipedia.org/w/index.php?title=Lista_%C3%B6ver_byggnadsminnen_i_Sk%C3%A5ne_l%C3%A4n&oldid=33773790,2016-06-08 06:51:48,Blåherremölla,http://www.bebyggelseregistret.raa.se/bbr2/anlaggning/visaHistorik.raa?page=historik&visaHistorik=true&anlaggningId=21320000019178
178,21300000014524,[[Bäckaskogs slott]] (Bäckaskog 1:17),SE-M,"Kungsgård, slott, kloster (7 byggnader)",1220-talet,,,Kristianstad,56.08597,14.34682,Bäckaskog 2.jpg,,//sv.wikipedia.org/w/index.php?title=Lista_%C3%B6ver_byggnadsminnen_i_Sk%C3%A5ne_l%C3%A4n&oldid=33773790,2016-06-08 06:51:48,Bäckaskogs_slott,http://www.bebyggelseregistret.raa.se/bbr2/anlaggning/visaHistorik.raa?page=historik&visaHistorik=true&anlaggningId=21300000014524
179,21300000014546,[[Cedergrenska gården]] (Gladan 18; f.d. Gladan 5 och stadsägan 157),SE-M,Borgargård (2 byggnader),1775,,,Kristianstad,55.92179,14.29241,"Cedergrenska gården, Åhus.jpg",,//sv.wikipedia.org/w/index.php?title=Lista_%C3%B6ver_byggnadsminnen_i_Sk%C3%A5ne_l%C3%A4n&oldid=33773790,2016-06-08 06:51:48,Cedergrenska_gården,http://www.bebyggelseregistret.raa.se/bbr2/anlaggning/visaHistorik.raa?page=historik&visaHistorik=true&anlaggningId=21300000014546
180,21300000016685,[[Ekestads Folkets park]] (Flackarp 1:9),SE-M,"Park, folkpark (1 byggnad)",1929,,,Kristianstad,56.13003,14.25715,Ekestads folkets park.jpg,,//sv.wikipedia.org/w/index.php?title=Lista_%C3%B6ver_byggnadsminnen_i_Sk%C3%A5ne_l%C3%A4n&oldid=33773790,2016-06-08 06:51:48,Ekestads_Folkets_park,http://www.bebyggelseregistret.raa.se/bbr2/anlaggning/visaHistorik.raa?page=historik&visaHistorik=true&anlaggningId=21300000016685
181,21300000014398,[[Everöds prästgård]] (Everöd 5:54),SE-M,"Boställe, prästgård (4 byggnader)",1803,,,Kristianstad,55.90066,14.07204,Everöds prästgård.jpg,,//sv.wikipedia.org/w/index.php?title=Lista_%C3%B6ver_byggnadsminnen_i_Sk%C3%A5ne_l%C3%A4n&oldid=33773790,2016-06-08 06:51:48,Everöds_prästgård,http://www.bebyggelseregistret.raa.se/bbr2/anlaggning/visaHistorik.raa?page=historik&visaHistorik=true&anlaggningId=21300000014398
182,21300000018674,[[Folkestorps bränneri]] (Folkestorp 6:5),SE-M,Bränneri (1 byggnad),1909,,,Kristianstad,55.78824,14.14917,Folkestorps bränneri.jpg,,//sv.wikipedia.org/w/index.php?title=Lista_%C3%B6ver_byggnadsminnen_i_Sk%C3%A5ne_l%C3%A4n&oldid=33773790,2016-06-08 06:51:48,Folkestorps_bränneri,http://www.bebyggelseregistret.raa.se/bbr2/anlaggning/visaHistorik.raa?page=historik&visaHistorik=true&anlaggningId=21300000018674
183,21300000014544,"Fornstugan i [[Tivoliparken, Kristianstad|Tivoliparken]] (Kristianstad 4:21; f.d. Tivoliparken littera gk)",SE-M,Museum (1 byggnad),1886,,,Kristianstad,56.0289,14.15329,Fornstugan.jpg,,//sv.wikipedia.org/w/index.php?title=Lista_%C3%B6ver_byggnadsminnen_i_Sk%C3%A5ne_l%C3%A4n&oldid=33773790,2016-06-08 06:51:48,"Tivoliparken,_Kristianstad",http://www.bebyggelseregistret.raa.se/bbr2/anlaggning/visaHistorik.raa?page=historik&visaHistorik=true&anlaggningId=21300000014544
184,21320000018999,[[Hovby smedja]] (Hovby 50:52),SE-M,Smedja (2 byggnader),1850-talet,,,Kristianstad,55.96368,14.19004,Hovby smedja.jpg,,//sv.wikipedia.org/w/index.php?title=Lista_%C3%B6ver_byggnadsminnen_i_Sk%C3%A5ne_l%C3%A4n&oldid=33773790,2016-06-08 06:51:48,Hovby_smedja,http://www.bebyggelseregistret.raa.se/bbr2/anlaggning/visaHistorik.raa?page=historik&visaHistorik=true&anlaggningId=21320000018999
185,21300000014591,"[[Köpinge ryttmästarboställe]] (Köpinge 101:1, 36:3 och 23:3)",SE-M,"Boställe, officersboställe (6 byggnader)",1754,,,Kristianstad,55.93889,14.16301,Köpinge ryttmästarboställe.jpg,,//sv.wikipedia.org/w/index.php?title=Lista_%C3%B6ver_byggnadsminnen_i_Sk%C3%A5ne_l%C3%A4n&oldid=33773790,2016-06-08 06:51:48,Köpinge_ryttmästarboställe,http://www.bebyggelseregistret.raa.se/bbr2/anlaggning/visaHistorik.raa?page=historik&visaHistorik=true&anlaggningId=21300000014591
186,21300000014885,[[Lillö kungsgård]] (Lillö 50:2),SE-M,Kungsgård (6 byggnader),1796,,,Kristianstad,56.03415,14.1186,Lillö kungsgård.jpg,,//sv.wikipedia.org/w/index.php?title=Lista_%C3%B6ver_byggnadsminnen_i_Sk%C3%A5ne_l%C3%A4n&oldid=33773790,2016-06-08 06:51:48,Lillö_kungsgård,http://www.bebyggelseregistret.raa.se/bbr2/anlaggning/visaHistorik.raa?page=historik&visaHistorik=true&anlaggningId=21300000014885
187,21300000014548,"[[Länsresidenset, Kristianstad]] (Residenset 1)",SE-M,Residens (1 byggnad),1861,,,Kristianstad,56.02741,14.15632,Porten till Länsresidenset.jpg,,//sv.wikipedia.org/w/index.php?title=Lista_%C3%B6ver_byggnadsminnen_i_Sk%C3%A5ne_l%C3%A4n&oldid=33773790,2016-06-08 06:51:48,"Länsresidenset,_Kristianstad",http://www.bebyggelseregistret.raa.se/bbr2/anlaggning/visaHistorik.raa?page=historik&visaHistorik=true&anlaggningId=21300000014548
188,21300000014552,"[[Norra kasern, Norreport och Fyrkappan]] (Bastionen 6; f.d. Stg 566)",SE-M,"Befästning, borg, citadell (2 byggnader)",1760-talet,,,Kristianstad,56.03389,14.15291,Norreport.jpg,,//sv.wikipedia.org/w/index.php?title=Lista_%C3%B6ver_byggnadsminnen_i_Sk%C3%A5ne_l%C3%A4n&oldid=33773790,2016-06-08 06:51:48,"Norra_kasern,_Norreport_och_Fyrkappan",http://www.bebyggelseregistret.raa.se/bbr2/anlaggning/visaHistorik.raa?page=historik&visaHistorik=true&anlaggningId=21300000014552
189,21300000014887,[[Perstorps kapell]] (Oppmanna 4:16),SE-M,Frikyrka (3 byggnader),1860,,,Kristianstad,56.18165,14.31803,,,//sv.wikipedia.org/w/index.php?title=Lista_%C3%B6ver_byggnadsminnen_i_Sk%C3%A5ne_l%C3%A4n&oldid=33773790,2016-06-08 06:51:48,Perstorps_kapell,http://www.bebyggelseregistret.raa.se/bbr2/anlaggning/visaHistorik.raa?page=historik&visaHistorik=true&anlaggningId=21300000014887
190,21300000015062,"[[Posthuset och före detta Riksbanken, Kristianstad]] (Tyggården 2; f.d. Tyggården 1 och 3)",SE-M,"Posthus och poststation, bank, hypoteksförening (2 byggnader)",1917,,,Kristianstad,56.03175,14.15565,Gamla posthuset.jpg,,//sv.wikipedia.org/w/index.php?title=Lista_%C3%B6ver_byggnadsminnen_i_Sk%C3%A5ne_l%C3%A4n&oldid=33773790,2016-06-08 06:51:48,"Posthuset_och_före_detta_Riksbanken,_Kristianstad",http://www.bebyggelseregistret.raa.se/bbr2/anlaggning/visaHistorik.raa?page=historik&visaHistorik=true&anlaggningId=21300000015062
191,21300000014971,[[Skogstorpet Skarsnäs]] (Skärsnäs 9:37),SE-M,"Torp, dagsverkstorp (6 byggnader)",1818,,,Kristianstad,56.25557,14.40721,Skogstorpet Skarsnäs.jpg,,//sv.wikipedia.org/w/index.php?title=Lista_%C3%B6ver_byggnadsminnen_i_Sk%C3%A5ne_l%C3%A4n&oldid=33773790,2016-06-08 06:51:48,Skogstorpet_Skarsnäs,http://www.bebyggelseregistret.raa.se/bbr2/anlaggning/visaHistorik.raa?page=historik&visaHistorik=true&anlaggningId=21300000014971
192,21300000014563,[[Kristianstads centralstation|Kristianstads station]] (Kristianstad 4:1 och 5:59),SE-M,Järnvägsstation (3 byggnader),1865,,,Kristianstad,56.03384,14.14876,Två vattentorn.jpg,,//sv.wikipedia.org/w/index.php?title=Lista_%C3%B6ver_byggnadsminnen_i_Sk%C3%A5ne_l%C3%A4n&oldid=33773790,2016-06-08 06:51:48,Kristianstads_centralstation,http://www.bebyggelseregistret.raa.se/bbr2/anlaggning/visaHistorik.raa?page=historik&visaHistorik=true&anlaggningId=21300000014563
193,21300000014542,[[Stora kronohuset]] (Hovrätten 20; f.d. Hovrätten 22),SE-M,"Kasernetablissemang, hovrätt (1 byggnad)",1841,,,Kristianstad,56.03188,14.15411,Kristianstad 070628-3.JPG,,//sv.wikipedia.org/w/index.php?title=Lista_%C3%B6ver_byggnadsminnen_i_Sk%C3%A5ne_l%C3%A4n&oldid=33773790,2016-06-08 06:51:48,Stora_kronohuset,http://www.bebyggelseregistret.raa.se/bbr2/anlaggning/visaHistorik.raa?page=historik&visaHistorik=true&anlaggningId=21300000014542
194,21300000014557,"[[Södra Kasern, Kristianstad]] (Södra Kasern 2; f.d. Södra Kasern 1)",SE-M,Kasernetablissemang (5 byggnader),1700-talet,,,Kristianstad,56.02762,14.15899,"Södra Kasern, Kristianstad, 1.jpg",,//sv.wikipedia.org/w/index.php?title=Lista_%C3%B6ver_byggnadsminnen_i_Sk%C3%A5ne_l%C3%A4n&oldid=33773790,2016-06-08 06:51:48,"Södra_Kasern,_Kristianstad",http://www.bebyggelseregistret.raa.se/bbr2/anlaggning/visaHistorik.raa?page=historik&visaHistorik=true&anlaggningId=21300000014557
195,21300000014407,[[Torsebro krutbruk]] (Biskopsmöllan 1:1 och 2:1),SE-M,"Bruk, herrgård, bruksherrgård, kemiindustri, sprängämneindustri (30 byggnader)",1683,,,Kristianstad,56.10794,14.12783,Torsebro Pulverfabrik Wirtschaftsgebäude.JPG,,//sv.wikipedia.org/w/index.php?title=Lista_%C3%B6ver_byggnadsminnen_i_Sk%C3%A5ne_l%C3%A4n&oldid=33773790,2016-06-08 06:51:48,Torsebro_krutbruk,http://www.bebyggelseregistret.raa.se/bbr2/anlaggning/visaHistorik.raa?page=historik&visaHistorik=true&anlaggningId=21300000014407
196,21300000014567,"[[Tyghuset, Kristianstad]] (Tyggården 2)",SE-M,Stalletablissemang (1 byggnad),1617,,,Kristianstad,56.03212,14.15624,Tyghuset 2.jpg,,//sv.wikipedia.org/w/index.php?title=Lista_%C3%B6ver_byggnadsminnen_i_Sk%C3%A5ne_l%C3%A4n&oldid=33773790,2016-06-08 06:51:48,"Tyghuset,_Kristianstad",http://www.bebyggelseregistret.raa.se/bbr2/anlaggning/visaHistorik.raa?page=historik&visaHistorik=true&anlaggningId=21300000014567
197,21300000014968,[[Vittskövle slott]] (Vittskövle 95:1),SE-M,Slott (1 byggnad),1565,,,Kristianstad,55.85479,14.13372,Vittskövle slott.jpg,,//sv.wikipedia.org/w/index.php?title=Lista_%C3%B6ver_byggnadsminnen_i_Sk%C3%A5ne_l%C3%A4n&oldid=33773790,2016-06-08 06:51:48,Vittskövle_slott,http://www.bebyggelseregistret.raa.se/bbr2/anlaggning/visaHistorik.raa?page=historik&visaHistorik=true&anlaggningId=21300000014968
198,21300000015036,[[von Bergska gården]] (Bagaren 8),SE-M,Borgargård (2 byggnader),1794,,,Kristianstad,55.92216,14.29464,"Von Bergska gården, Åhus.jpg",,//sv.wikipedia.org/w/index.php?title=Lista_%C3%B6ver_byggnadsminnen_i_Sk%C3%A5ne_l%C3%A4n&oldid=33773790,2016-06-08 06:51:48,Von_Bergska_gården,http://www.bebyggelseregistret.raa.se/bbr2/anlaggning/visaHistorik.raa?page=historik&visaHistorik=true&anlaggningId=21300000015036
199,21300000015041,[[Jaktvillan Oretorp]] (Oretorp 6:1; f.d. Sönnarslöv 79:2),SE-M,Bostadshus (1 byggnad),1871,,,Kristianstad,55.90518,14.00538,Oretorp 2012.jpg,,//sv.wikipedia.org/w/index.php?title=Lista_%C3%B6ver_byggnadsminnen_i_Sk%C3%A5ne_l%C3%A4n&oldid=33773790,2016-06-08 06:51:48,Jaktvillan_Oretorp,http://www.bebyggelseregistret.raa.se/bbr2/anlaggning/visaHistorik.raa?page=historik&visaHistorik=true&anlaggningId=21300000015041
200,21300000014569,[[Österbergska gården]] (David Nyborg 14),SE-M,Borgargård (1 byggnad),1800-talets början,,,Kristianstad,56.0334,14.15502,Österbergska gården 2.jpg,,//sv.wikipedia.org/w/index.php?title=Lista_%C3%B6ver_byggnadsminnen_i_Sk%C3%A5ne_l%C3%A4n&oldid=33773790,2016-06-08 06:51:48,Österbergska_gården,http://www.bebyggelseregistret.raa.se/bbr2/anlaggning/visaHistorik.raa?page=historik&visaHistorik=true&anlaggningId=21300000014569
201,21300000015039,[[Österslöv gamla prästgård]] (Österslöv 25:1),SE-M,"Boställe, prästgård (inga registrerade byggnader)",1600-talet,,Sten Billes väg,Kristianstad,56.10195,14.24955,"Österslövs gamla prästgård, mars 2014.jpg",,//sv.wikipedia.org/w/index.php?title=Lista_%C3%B6ver_byggnadsminnen_i_Sk%C3%A5ne_l%C3%A4n&oldid=33773790,2016-06-08 06:51:48,Österslöv_gamla_prästgård,http://www.bebyggelseregistret.raa.se/bbr2/anlaggning/visaHistorik.raa?page=historik&visaHistorik=true&anlaggningId=21300000015039
202,21300000014382,[[Gamlegård Dagstorp]] (Dagstorp 5:2),SE-M,Bondgård (4 byggnader),1796,,,Kävlinge,55.82355,13.06513,Gamlegård Dagstorp.jpg,,//sv.wikipedia.org/w/index.php?title=Lista_%C3%B6ver_byggnadsminnen_i_Sk%C3%A5ne_l%C3%A4n&oldid=33773790,2016-06-08 06:51:48,Gamlegård_Dagstorp,http://www.bebyggelseregistret.raa.se/bbr2/anlaggning/visaHistorik.raa?page=historik&visaHistorik=true&anlaggningId=21300000014382
203,21300000014595,"[[Fortifikationshuset, Landskrona]] (Gamla Bryggan 4)",SE-M,Borgargård (1 byggnad),1757,,,Landskrona,55.86962,12.82485,"Fortifikationshuset, Landskrona.jpg",,//sv.wikipedia.org/w/index.php?title=Lista_%C3%B6ver_byggnadsminnen_i_Sk%C3%A5ne_l%C3%A4n&oldid=33773790,2016-06-08 06:51:48,"Fortifikationshuset,_Landskrona",http://www.bebyggelseregistret.raa.se/bbr2/anlaggning/visaHistorik.raa?page=historik&visaHistorik=true&anlaggningId=21300000014595
204,21300000014613,"[[Gamla Kasern, Landskrona]] (Gamla Kasern 1, Tyghuset 1, Citadellstaden 1:1)",SE-M,Kasernetablissemang (1 byggnad),1760,,,Landskrona,55.87071,12.82871,Landskrona museum.jpg,,//sv.wikipedia.org/w/index.php?title=Lista_%C3%B6ver_byggnadsminnen_i_Sk%C3%A5ne_l%C3%A4n&oldid=33773790,2016-06-08 06:51:48,"Gamla_Kasern,_Landskrona",http://www.bebyggelseregistret.raa.se/bbr2/anlaggning/visaHistorik.raa?page=historik&visaHistorik=true&anlaggningId=21300000014613
205,21300000015153,[[Gråen]] (Lundåkra 10:2),SE-M,"Befästning, borg, citadell (inga registrerade byggnader)",1800-talets början,,,Landskrona,55.8626,12.8157,"Gråen, Landskrona.jpg",,//sv.wikipedia.org/w/index.php?title=Lista_%C3%B6ver_byggnadsminnen_i_Sk%C3%A5ne_l%C3%A4n&oldid=33773790,2016-06-08 06:51:48,Gråen,http://www.bebyggelseregistret.raa.se/bbr2/anlaggning/visaHistorik.raa?page=historik&visaHistorik=true&anlaggningId=21300000015153
206,21300000014928,[[Häljarps mölla]] (Häljarp 2:5),SE-M,"Kvarn, husbehovskvarn (1 byggnad)",1784,,[[Häljarp]],Landskrona,55.86193,12.90873,Häljarps mölla.jpg,,//sv.wikipedia.org/w/index.php?title=Lista_%C3%B6ver_byggnadsminnen_i_Sk%C3%A5ne_l%C3%A4n&oldid=33773790,2016-06-08 06:51:48,Häljarps_mölla,http://www.bebyggelseregistret.raa.se/bbr2/anlaggning/visaHistorik.raa?page=historik&visaHistorik=true&anlaggningId=21300000014928
207,21300000015147,[[Landskrona citadell]] (Citadellstaden 2:1),SE-M,"Befästning, borg, citadell (18 byggnader)",1559,,,Landskrona,55.87227,12.82248,Citadellet Landskrona.JPG,,//sv.wikipedia.org/w/index.php?title=Lista_%C3%B6ver_byggnadsminnen_i_Sk%C3%A5ne_l%C3%A4n&oldid=33773790,2016-06-08 06:51:48,Landskrona_citadell,http://www.bebyggelseregistret.raa.se/bbr2/anlaggning/visaHistorik.raa?page=historik&visaHistorik=true&anlaggningId=21300000015147
208,21300000014900,"[[Nämndemansgården, Ven|Nämndemansgården]] (Tuna 11:1)",SE-M,Bondgård (8 byggnader),1790-talet,,,Landskrona,55.89624,12.7099,Namdemansgarden Ven Sweden.jpg,,//sv.wikipedia.org/w/index.php?title=Lista_%C3%B6ver_byggnadsminnen_i_Sk%C3%A5ne_l%C3%A4n&oldid=33773790,2016-06-08 06:51:48,"Nämndemansgården,_Ven",http://www.bebyggelseregistret.raa.se/bbr2/anlaggning/visaHistorik.raa?page=historik&visaHistorik=true&anlaggningId=21300000014900
209,21300000015159,[[Uraniborg]] (Uranienborg 1:1),SE-M,Kungsgård (3 byggnader),1900,,,Landskrona,55.90515,12.69705,Stjarneborg.jpg,,//sv.wikipedia.org/w/index.php?title=Lista_%C3%B6ver_byggnadsminnen_i_Sk%C3%A5ne_l%C3%A4n&oldid=33773790,2016-06-08 06:51:48,Uraniborg,http://www.bebyggelseregistret.raa.se/bbr2/anlaggning/visaHistorik.raa?page=historik&visaHistorik=true&anlaggningId=21300000015159
210,21300000014597,[[Tranckellska gården]] (Gamla Bryggan 19),SE-M,"Bostadshus, palats och stadsvilla (2 byggnader)",1894,,,Landskrona,55.86939,12.82495,"Tranckellska gården, Landskrona.jpg",,//sv.wikipedia.org/w/index.php?title=Lista_%C3%B6ver_byggnadsminnen_i_Sk%C3%A5ne_l%C3%A4n&oldid=33773790,2016-06-08 06:51:48,Tranckellska_gården,http://www.bebyggelseregistret.raa.se/bbr2/anlaggning/visaHistorik.raa?page=historik&visaHistorik=true&anlaggningId=21300000014597
211,21300000014623,[[Alnarps slott]] (Alnarp 1:60),SE-M,"Skola, yrkesskola (7 byggnader)",1862,,[[Alnarp]],Lomma,55.65723,13.08357,Jorchr - Alnarps slott.jpg,,//sv.wikipedia.org/w/index.php?title=Lista_%C3%B6ver_byggnadsminnen_i_Sk%C3%A5ne_l%C3%A4n&oldid=33773790,2016-06-08 06:51:48,Alnarps_slott,http://www.bebyggelseregistret.raa.se/bbr2/anlaggning/visaHistorik.raa?page=historik&visaHistorik=true&anlaggningId=21300000014623
212,21300000014337,[[Borgeby slott]] (Borgeby 23:6),SE-M,Slott (7 byggnader),1400-talet,,"[[Borgeby, Bjärred|Borgeby]]",Lomma,55.75123,13.03707,Borgeby02.JPG,,//sv.wikipedia.org/w/index.php?title=Lista_%C3%B6ver_byggnadsminnen_i_Sk%C3%A5ne_l%C3%A4n&oldid=33773790,2016-06-08 06:51:48,Borgeby_slott,http://www.bebyggelseregistret.raa.se/bbr2/anlaggning/visaHistorik.raa?page=historik&visaHistorik=true&anlaggningId=21300000014337
213,21300000014665,"[[Katedralskolan, Lund]] (Katedralskolan 8; f.d. Katedralskolan 1)",SE-M,"Skola, läroverk, katedralskola, bostadshus (2 byggnader)",1500-talets mitt,,,Lund,55.69992,13.19089,Katedralskolan lund.JPG,,//sv.wikipedia.org/w/index.php?title=Lista_%C3%B6ver_byggnadsminnen_i_Sk%C3%A5ne_l%C3%A4n&oldid=33773790,2016-06-08 06:51:48,"Katedralskolan,_Lund",http://www.bebyggelseregistret.raa.se/bbr2/anlaggning/visaHistorik.raa?page=historik&visaHistorik=true&anlaggningId=21300000014665
214,21300000014514,[[Banvaktarstugan i Håstad]] (Håstad 23:1),SE-M,"Boställe, banvaktarstuga (2 byggnader)",1857,,,Lund,55.77345,13.2265,"Banvaktarstugan Håstad 2, 23 1, Lund, gavel.jpg",,//sv.wikipedia.org/w/index.php?title=Lista_%C3%B6ver_byggnadsminnen_i_Sk%C3%A5ne_l%C3%A4n&oldid=33773790,2016-06-08 06:51:48,Banvaktarstugan_i_Håstad,http://www.bebyggelseregistret.raa.se/bbr2/anlaggning/visaHistorik.raa?page=historik&visaHistorik=true&anlaggningId=21300000014514
215,21300000014635,[[Bruniushuset]] (Brunius 12),SE-M,Borgargård (4 byggnader),1840,,,Lund,55.70238,13.19722,"Bruniushuset, Lund, september 2014.jpg",,//sv.wikipedia.org/w/index.php?title=Lista_%C3%B6ver_byggnadsminnen_i_Sk%C3%A5ne_l%C3%A4n&oldid=33773790,2016-06-08 06:51:48,Bruniushuset,http://www.bebyggelseregistret.raa.se/bbr2/anlaggning/visaHistorik.raa?page=historik&visaHistorik=true&anlaggningId=21300000014635
216,21300000015136,[[Dalby kungsgård]] (Dalby 60:1),SE-M,Kungsgård (5 byggnader),1400,,,Lund,55.66454,13.34371,"Dalby kungsgård 7, Dalby 60 1, innergården.jpg",,//sv.wikipedia.org/w/index.php?title=Lista_%C3%B6ver_byggnadsminnen_i_Sk%C3%A5ne_l%C3%A4n&oldid=33773790,2016-06-08 06:51:48,Dalby_kungsgård,http://www.bebyggelseregistret.raa.se/bbr2/anlaggning/visaHistorik.raa?page=historik&visaHistorik=true&anlaggningId=21300000015136
217,21300000014642,[[Ekska huset]] (S:t Peter 28),SE-M,Borgargård (1 byggnad),1827,,,Lund,55.70642,13.19148,"Ekska huset, Lund.jpg",,//sv.wikipedia.org/w/index.php?title=Lista_%C3%B6ver_byggnadsminnen_i_Sk%C3%A5ne_l%C3%A4n&oldid=33773790,2016-06-08 06:51:48,Ekska_huset,http://www.bebyggelseregistret.raa.se/bbr2/anlaggning/visaHistorik.raa?page=historik&visaHistorik=true&anlaggningId=21300000014642
218,21300000014923,[[Flyinge kungsgård]] (Flyinge 22:40),SE-M,Kungsgård (12 byggnader),1818,,,Lund,55.74836,13.35171,Flyinge kungsgård.jpg,,//sv.wikipedia.org/w/index.php?title=Lista_%C3%B6ver_byggnadsminnen_i_Sk%C3%A5ne_l%C3%A4n&oldid=33773790,2016-06-08 06:51:48,Flyinge_kungsgård,http://www.bebyggelseregistret.raa.se/bbr2/anlaggning/visaHistorik.raa?page=historik&visaHistorik=true&anlaggningId=21300000014923
219,21300000014645,[[Fru Görvels hus]] (Färgaren 27),SE-M,Borgargård (1 byggnad),1570,,,Lund,55.70114,13.19208,"Fru Görvels hus, 03.jpg",,//sv.wikipedia.org/w/index.php?title=Lista_%C3%B6ver_byggnadsminnen_i_Sk%C3%A5ne_l%C3%A4n&oldid=33773790,2016-06-08 06:51:48,Fru_Görvels_hus,http://www.bebyggelseregistret.raa.se/bbr2/anlaggning/visaHistorik.raa?page=historik&visaHistorik=true&anlaggningId=21300000014645
220,21300000014679,"[[Kungshuset, Lund|Gamla biblioteket]] (Universitetet 1; f.d. Innerstaden 4:14)",SE-M,"Skola, högskola, universitet (1 byggnad)",1584,,,Lund,55.70527,13.19394,Kungshuset från ovan.jpg,,//sv.wikipedia.org/w/index.php?title=Lista_%C3%B6ver_byggnadsminnen_i_Sk%C3%A5ne_l%C3%A4n&oldid=33773790,2016-06-08 06:51:48,"Kungshuset,_Lund",http://www.bebyggelseregistret.raa.se/bbr2/anlaggning/visaHistorik.raa?page=historik&visaHistorik=true&anlaggningId=21300000014679
221,21300000014693,[[Bredgatan#Sankt Peter 39| Bredgatan 19 och 21]] (S:t Peter 39),SE-M,"Borgargård, handelsgård (2 byggnader)",1790 och 1794,,,Lund,55.70849,13.19258,"Bredgatan 19, Lund.jpg",,//sv.wikipedia.org/w/index.php?title=Lista_%C3%B6ver_byggnadsminnen_i_Sk%C3%A5ne_l%C3%A4n&oldid=33773790,2016-06-08 06:51:48,Bredgatan#Sankt_Peter_39,http://www.bebyggelseregistret.raa.se/bbr2/anlaggning/visaHistorik.raa?page=historik&visaHistorik=true&anlaggningId=21300000014693
